School.ID,Agency,School,Address,maxOccupancy,ProjectPhase,Yr. Compl-eted,Level,totalSQFT,ProjectType,MajorExp9815,TotalAllotandPlan1621,LifetimeBudget,unqBuilding,FeederMS,FeederHS,Total.Enrolled,Limited.English.Proficient,At_Risk,SPED,AtRiskPer,SPEDPer,ESLPer,SqFtPerEnroll,SpentPerMaxOccupancy,SpentPerSqFt,YearsOpen,Open,Open.Now,AnnualExpenseAverage,AnnualSpentPerMaxOccupany,AnnualSpentPerSqFt,longitude,latitude,Ward
233,PCS,Academy of Hope Adult PCS,"
421 Alabama Avenue, SE",186,NA,NA,ADULT,"12,000",Facility Allowance,786432,NA,NA,0,NA,NA,256,0,0,0,0,0,0,83,3072,36.7921403508772,1,2015,1,786432,3072,36.7921403508772,-76.9998836,38.842743,8
233,PCS,Academy of Hope Adult PCS,"601 Edgewood Street, NE",186,NA,NA,ADULT,"9,375",Facility Allowance,786432,NA,NA,0,NA,NA,256,0,0,0,0,0,0,83,3072,36.7921403508772,1,2015,1,786432,3072,36.7921403508772,-76.9971713,38.9237975,5
217,PCS,Achievement Preparatory PCS-Elementary,"1500 Mississippi Avenue, SE",NA,NA,NA,ES,23302,Facility Allowance,3963509,NA,NA,1,NA,NA,267,1,132,23,0.49438202247191,0.0861423220973783,0.00374531835205993,87,14844.6029962547,170.093082138872,7,2009,1,566215.571428571,2120.65757089353,24.2990117341246,-76.9836028,38.8416964,8
1100,PCS,Achievement Preparatory PCS-Middle School,"908 Wahler Place, SE",519,NA,NA,MS,33177,Facility Allowance,2316432,NA,NA,1,NA,NA,381,0,192,51,0.503937007874016,0.133858267716535,0,87,6079.87401574803,69.8204177592911,2,2014,1,1158216,3039.93700787402,34.9102088796455,-76.9924085,38.834427,8
202,DCPS,Aiton ES,533 48th Pl  NE,442,Phase 0,NA,ES,"57,100",Stabilized,"$8,916","$12,115,000","$14,515,000",1,Kelly Miller MS,Woodson HS,262,1,214,42,82%,16%,0%,218,$20,$0,NA,NA,1,NA,NA,NA,-76.9333547,38.8970081,7
203,DCPS,Amidon-Bowen ES,401 Eye St  SW,400,Phase I,2012,ES,"70,800",Partial Modernization,"$5,993,305",$0,"$5,993,305",1,Jefferson Acad. MS,Eastern HS,345,6,254,90,74%,26%,2%,205,"$14,983",$85,NA,NA,1,NA,NA,NA,-77.0291221,38.9015926,2
450,DCPS,Anacostia HS,1601 16th St  SE,837,Full,2012,HS,"204,992",Full Modernization,"$68,228,069",$0,"$68,860,993",1,,Anacostia HS,661,0,586,186,89%,28%,0%,310,"$81,515",$333,NA,NA,1,NA,NA,NA,-76.9829543,38.8700237,8
140,PCS,AppleTree Early Learning Center PCS Columbia Heights,"2750 14th Street, NW ",188,NA,NA,PK3-K,12204,Facility Allowance,3156647,NA,NA,1,NA,NA,163,37,58,10,0.355828220858896,0.0613496932515337,0.226993865030675,75,19365.9325153374,258.656751884628,8,2008,1,394580.875,2420.74156441718,32.3320939855785,-77.0326704,38.9252369,1
3073,PCS,AppleTree Early Learning Center PCS Lincoln Park,"138 12th Street, NE",73,NA,NA,PK3-K,8975,Facility Allowance,1182840,NA,NA,1,NA,NA,60,2,5,5,0.0833333333333333,0.0833333333333333,0.0333333333333333,150,19714,131.792757660167,8,2008,1,147855,2464.25,16.4740947075209,-76.9905578,38.8914903,6
1137,PCS,AppleTree Early Learning Center PCS Oklahoma,"320 21st Street, NE",218,NA,NA,PK3-K,15866,Facility Allowance,2327592,NA,NA,1,NA,NA,161,3,80,4,0.496894409937888,0.0248447204968944,0.0186335403726708,99,14457.0931677019,146.703138787344,5,2011,1,465518.4,2891.41863354037,29.3406277574688,-76.9750541,38.8940003,7
141,PCS,AppleTree Early Learning Center PCS Southwest,"801 7th Street, SW",158,NA,NA,PK3-K,6162,Facility Allowance,736320,NA,NA,1,NA,NA,86,4,41,2,0.476744186046512,0.0232558139534884,0.0465116279069767,72,8561.86046511628,119.493670886076,4,2012,1,184080,2140.46511627907,29.873417721519,-77.0229317,38.8798501,6
3072,PCS,AppleTree Early Learning PCS Southeast (2011),"2011 Savannah Terrace, SE",230,NA,NA,PK3-K,9677,Facility Allowance,1560816,NA,NA,0,NA,NA,178,1,129,4,0.724719101123595,0.0224719101123595,0.00561797752808989,96,8768.62921348315,90.9513431618204,4,2012,1,390204,2192.15730337079,22.7378357904551,-76.972974,38.8494641,8
3072,PCS,AppleTree Early Learning PCS Southeast (2017),"2017 Savannah Terrace, SE",230,NA,NA,PK3-K,"7,484",Facility Allowance,1560816,NA,NA,0,NA,NA,178,1,129,4,0.724719101123595,0.0224719101123595,0.00561797752808989,96,8768.62921348315,90.9513431618204,4,2012,1,390204,2192.15730337079,22.7378357904551,-76.9746704,38.8485617,8
452,DCPS,Ballou HS,3401 4th St  SE,1520,Full,2015,HS,"356,000",Full Replacement,"$141,737,725","$4,007","$162,976,011",2,.,Ballou HS,755,0,644,276,85%,37%,0%,472,"$93,249",$398,NA,NA,1,NA,NA,NA,-77.0014227,38.8393559,8
462,DCPS,Ballou STAY HS,3401 4th St  SE,NA,Full,2015,ADULT,NA,NA,NA,$0,$0,2,NA,City-Wide ,591,0,0,52,0%,9%,0%,602,NA,NA,NA,NA,1,NA,NA,NA,-77.0014227,38.8393559,8
204,DCPS,Bancroft ES,1755 Newton St  NW,563,Phase 0,2018,ES,"79,792",Full Modernization,"$1,446,450","$59,943,000","$66,496,000",1,Deal MS,Wilson HS,508,279,181,54,36%,11%,55%,157,"$2,569",$18,NA,NA,1,NA,NA,NA,-77.0405163,38.9347901,1
402,DCPS,Banneker HS,800 Euclid St  NW,620,Phase 0,NA,HS,"180,000",Stabilized,"$671,104","$77,074,000","$78,745,104",1,,City-Wide ,449,3,113,0,25%,0%,1%,401,"$1,082",$4,NA,NA,1,NA,NA,NA,-77.0239586,38.9235819,1
205,DCPS,Barnard ES,430 Decatur St  NW,486,Full,2003,ES,"72,496",Full Replacement,"$17,867,772",$0,"$17,867,772",1,Truesdell or West EC (6th-8th),Roosevelt HS,602,193,284,72,47%,12%,32%,120,"$36,765",$246,NA,NA,1,NA,NA,NA,-77.018458,38.9479619,4
3068,PCS,Basis DC PCS,"410 8th Street, NW",1062,NA,NA,MS/HS,44179,Facility Allowance,4551672,NA,NA,1,NA,NA,551,0,48,23,0.0871143375680581,0.0417422867513612,0,80,8260.74773139746,103.027954458,3,2013,1,1517224,2753.58257713249,34.3426514860001,-77.0233079,38.8953055,6
206,DCPS,Beers ES,3600 Alabama Ave  SE,430,Phase I,2013,ES,"77,488",Partial Modernization,"$14,813,933","-$24,188","$15,123,196",1,Sousa MS,Anacostia HS,438,1,243,79,55%,18%,0%,177,"$34,451",$191,NA,NA,1,NA,NA,NA,-76.9556094,38.8646071,7
212,DCPS,Brent ES,301 North Carolina Ave  SE,369,Phase I,2009,ES,"47,500",Partial Modernization,"$4,475,354",$0,"$4,485,194",1,Jefferson Acad. MS,Eastern HS,368,5,23,22,6%,6%,1%,129,"$12,128",$94,NA,NA,1,NA,NA,NA,-77.0013712,38.8847202,6
142,PCS,Bridges PCS,1244 Taylor Street. NW,534,NA,NA,ES,10776,Facility Allowance,3405436,NA,NA,0,NA,NA,272,102,93,77,0.341911764705882,0.283088235294118,0.375,76,12519.9852941176,164.704778487135,10,2006,1,340543.6,1251.99852941176,16.4704778487135,-77.0283582,38.9407171,4
142,PCS,Bridges PCS,"1250 Taylor Street, NW",534,NA,NA,ES,3900,Facility Allowance,3405436,NA,NA,0,NA,NA,272,102,93,77,0.341911764705882,0.283088235294118,0.375,76,12519.9852941176,164.704778487135,10,2006,1,340543.6,1251.99852941176,16.4704778487135,-77.0285894,38.9405054,4
142,PCS,Bridges PCS,"4300 13th Street NW
",534,NA,NA,ES,6000,Facility Allowance,3405436,NA,NA,2,NA,NA,272,102,93,77,0.341911764705882,0.283088235294118,0.375,76,12519.9852941176,164.704778487135,10,2006,1,340543.6,1251.99852941176,16.4704778487135,-77.03121,38.94344,4
213,DCPS,Brightwood ES/MS,1300 Nicholson St NW,584,Full,2005,ES/MS,"78,000",Full Modernization,"$22,265,461",$0,"$22,269,148",1,,Coolidge HS,639,379,302,78,47%,12%,59%,122,"$38,126",$285,NA,NA,1,NA,NA,NA,-77.0301586,38.9607113,4
126,PCS,Briya Public Charter School,"1755 Newton Street, NW",663,NA,NA,ADULT,26940,Facility Allowance,8206459,NA,NA,0,NA,NA,492,50,20,5,0.040650406504065,0.0101626016260163,0.101626016260163,55,16679.7947154472,304.619858945806,9,2007,1,911828.777777778,1853.31052393857,33.8466509939784,-77.0405163,38.9347901,1
126,PCS,Briya Public Charter School,"2333 Ontario Road, NW (Main Office)",663,NA,NA,ADULT,26940,Facility Allowance,8206459,NA,NA,0,NA,NA,492,50,20,5,0.040650406504065,0.0101626016260163,0.101626016260163,55,16679.7947154472,304.619858945806,9,2007,1,911828.777777778,1853.31052393857,33.8466509939784,-77.0368707,38.9071923,2
126,PCS,Briya Public Charter School,"3912 Georgia Avenue, NW",663,NA,NA,ADULT,26940,Facility Allowance,8206459,NA,NA,0,NA,NA,492,50,20,5,0.040650406504065,0.0101626016260163,0.101626016260163,55,16679.7947154472,304.619858945806,9,2007,1,911828.777777778,1853.31052393857,33.8466509939784,-77.0250314,38.9391892,4
NA,DCPS,Brookland MS," 1150  Michigan Avenue, NE",540,Full,2015,MS,"110,000",Full Replacement,"$58,053,351","-$1,202,174","$62,711,400",1,NA,Dunbar HS,NA,NA,NA,NA,NA,NA,NA,NA,"$107,506",$528,NA,NA,1,NA,NA,NA,-76.9918169,38.9374144,5
404,DCPS,Browne ES/MS,850 26th St  NE,804,Phase 0,NA,ES/MS,"215,392",Stabilized,"$131,951","$20,636,000","$23,793,129",1,,Eastern HS,353,23,241,56,68%,16%,7%,610,$164,$1,NA,NA,1,NA,NA,NA,-76.9708894,38.9026911,5
NA,DCPS,Bruce-Monroe ES  (demolished),3012 Georgia Ave NW,NA,NA,NA,ES,"110,700",Demolished,"$1,499,358",$0," 	1,499,358 ",1,NA,NA,NA,NA,NA,NA,NA,NA,NA,NA,NA,$14,NA,NA,0,NA,NA,NA,NA,NA,1
296,DCPS,Bruce-Monroe ES @ Park View,3560 Warder St  NW,609,Phase I,2012,ES,"82,192",Partial Modernization,"$11,264,300",$0,"$17,026,865",1,CHEC (6-8),Cardozo HS (9-12),465,NA,235,NA,51%,NA,NA,NA,"$18,496",$137,NA,NA,1,NA,NA,NA,-77.0208192,38.9339718,1
346,DCPS,Bunker Hill ES/MS,1401 Michigan Ave  NE,480,Phase I,2012,ES/MS,"69,392",Partial Modernization,"$6,533,765",$0,"$6,544,178",1,Brookland MS,Dunbar HS,225,NA,108,NA,48%,NA,NA,NA,"$13,612",$94,NA,NA,1,NA,NA,NA,-76.9848216,38.9420075,5
220,DCPS,Burroughs ES/MS,1820 Monroe St  NE,450,Phase I,2013,ES/MS,"69,696",Partial Modernization,"$8,239,048",$0,"$8,866,114",1,Brookland MS,Dunbar HS,297,14,156,53,53%,18%,5%,235,"$18,309",$118,NA,NA,1,NA,NA,NA,-76.9788919,38.933612,5
221,DCPS,Burrville ES,801 Division Ave  NE,400,Phase I,2010,ES,"94,992",Partial Modernization,"$2,991,980",$0,"$2,996,347",1,Kelly Miller MS,Woodson HS,360,2,244,36,68%,10%,1%,264,"$7,480",$31,NA,NA,1,NA,NA,NA,-76.923953,38.9004502,7
247,DCPS,C.W. Harris ES,301 53rd St  SE,438,Phase 0,NA,ES,"56,000",Stabilized,$0,"$12,606,000","$12,606,000",1,Kelly Miller MS,Woodson HS,291,2,229,40,79%,14%,1%,192,$0,$0,NA,NA,1,NA,NA,NA,-76.9261671,38.883619,7
1207,PCS,Capital City High School PCS,"102 Peabody Street, NW",NA,NA,NA,HS,57033,Facility Allowance,5546488,NA,NA,1,NA,NA,329,50,148,60,0.449848024316109,0.182370820668693,0.151975683890578,173,16858.6261398176,97.2505040941209,6,2010,1,924414.666666667,2809.77102330294,16.2084173490202,-77.0113808,38.9626905,4
184,PCS,Capital City Lower PCS,"100 Peabody Street, NW",1180,NA,NA,ES,57033,Facility Allowance,5829980,NA,NA,1,NA,NA,322,95,72,15,0.22360248447205,0.046583850931677,0.295031055900621,177,18105.5279503106,102.221170199709,7,2009,1,832854.285714286,2586.50399290151,14.6030243142441,-77.0126091,38.9623344,4
182,PCS,Capital City Middle School,"101 Peabody Street, NW",NA,NA,NA,MS,57033,Facility Allowance,3252992,NA,NA,1,NA,NA,320,38,111,56,0.346875,0.175,0.11875,178,10165.6,57.037013658759,4,2009,1,813248,2541.4,14.2592534146897,-77.0110697,38.9627222,4
360,DCPS,Capitol Hill Montessori @ Logan ES/MS,215 G Street NE,360,Phase 0,NA,ES/MS,"47,200",Stabilized,"$975,866","$11,987,136","$14,637,256",1,NA,Eastern HS,310,NA,25,NA,8%,NA,NA,NA,"$2,711",$21,NA,NA,1,NA,NA,NA,-77.0025711,38.8985014,6
454,DCPS,Cardozo MS/HS,1200 Clifton St. NW,1070,Full,2013,MS/HS,"397,400",Full Modernization,"$131,527,974",$0,"$132,124,454",1,,Cardozo HS (9-12),781,266,573,188,73%,24%,34%,509,"$122,923",$331,NA,NA,1,NA,NA,NA,-77.0280509,38.9224184,1
1119,PCS,Carlos Rosario International PCS Harvard Street Campus,"1100 Harvard Street, NW",1614,NA,NA,ADULT,"84,000",Facility Allowance,57276227,NA,NA,0,NA,NA,1973,113,0,0,0,0,0.05727318803852,67,29030.0187531678,433.910810606061,17,1999,1,3369189.82352941,1707.64816195104,25.5241653297683,-77.0276499,38.9263689,1
1119,PCS,Carlos Rosario International PCS Harvard Street Campus,"514 V Street, NE",1614,NA,NA,ADULT,132000,Facility Allowance,57276227,NA,NA,0,NA,NA,1973,113,0,0,0,0,0.05727318803852,67,29030.0187531678,433.910810606061,17,1999,1,3369189.82352941,1707.64816195104,25.5241653297683,-76.9986344,38.9183706,5
188,PCS,Cedar Tree Academy PCS,"701 Howard Road, SE",650,NA,NA,PK3-K,31000,Facility Allowance,2065776,NA,NA,1,NA,NA,358,0,261,9,0.729050279329609,0.0251396648044693,0,87,5770.32402234637,66.637935483871,2,2014,1,1032888,2885.16201117318,33.3189677419355,-76.999207,38.8641137,8
1103,PCS,Center City Brightwood Campus PCS,"6008 Georgia Avenue, NW",567,NA,NA,ES/MS,37010,Facility Allowance,4766091,NA,NA,1,NA,NA,248,55,80,26,0.32258064516129,0.104838709677419,0.221774193548387,149,19218.1088709677,128.778465279654,7,2009,1,680870.142857143,2745.44412442396,18.3969236113792,-77.02838,38.9631991,4
1104,PCS,Center City Capitol Hill Campus PCS,"1503 East Capitol Street, SE",534,NA,NA,ES/MS,40037,Facility Allowance,4699097,NA,NA,1,NA,NA,239,0,112,23,0.468619246861925,0.096234309623431,0,168,19661.4937238494,117.368858805605,7,2009,1,671299.571428571,2808.78481769277,16.7669798293721,-76.9835459,38.8897865,6
1105,PCS,Center City Congress Heights Campus PCS,"220 Highview Place, SE",341,NA,NA,ES/MS,27000,Facility Allowance,4770011,NA,NA,1,NA,NA,257,0,172,19,0.669260700389105,0.0739299610894942,0,105,18560.3540856031,176.667074074074,7,2009,1,681430.142857143,2651.47915508616,25.2381534391534,-77.0045487,38.8415048,8
1106,PCS,Center City Petworth Campus PCS,"510 Webster Street, NW",425,NA,NA,ES/MS,30825,Facility Allowance,4949770,NA,NA,1,NA,NA,262,53,97,19,0.370229007633588,0.0725190839694656,0.202290076335878,118,18892.2519083969,160.576480129765,7,2009,1,707110,2698.89312977099,22.939497161395,-77.0208684,38.9437731,4
1107,PCS,Center City Shaw Campus PCS,"711 N Street, NW",350,NA,NA,ES/MS,29240,Facility Allowance,4824166,NA,NA,1,NA,NA,241,34,113,29,0.468879668049793,0.120331950207469,0.141078838174274,121,20017.2863070539,164.985157318741,7,2009,1,689166.571428571,2859.61232957913,23.5693081883916,-77.0224536,38.9074837,2
1108,PCS,Center City Trinidad Campus PCS,"1217 W  Virginia Avenue, NE",434,NA,NA,ES/MS,23313,Facility Allowance,4651663,NA,NA,1,NA,NA,236,4,132,26,0.559322033898305,0.110169491525424,0.0169491525423729,99,19710.436440678,199.530862608845,7,2009,1,664523.285714286,2815.77663438257,28.5044089441207,-76.991479,38.905386,5
153,PCS,Cesar Chavez Capitol Hill PCS,"709 12th Street, SE",430,NA,NA,HS,40000,Facility Allowance,12075294,NA,NA,1,NA,NA,358,21,225,70,0.628491620111732,0.195530726256983,0.058659217877095,112,33729.8715083799,301.88235,10,2006,1,1207529.4,3372.98715083799,30.188235,-76.9907031,38.8807813,6
102,PCS,Cesar Chavez Parkside MS PCS,"3702 Hayes Street,  NE",NA,NA,NA,MS,30870,Facility Allowance,16948761,NA,NA,1,NA,NA,303,8,204,42,0.673267326732673,0.138613861386139,0.0264026402640264,102,55936.5049504951,549.036637512148,10,2006,1,1694876.1,5593.65049504951,54.9036637512148,-76.9500149,38.9029444,7
127,PCS,Cesar Chavez PCS Chavez Prep,"770 Kenyon Street, NW",420,NA,NA,MS,36059,Facility Allowance,6096304,NA,NA,1,NA,NA,331,94,170,48,0.513595166163142,0.145015105740181,0.283987915407855,109,18417.836858006,169.064699520231,8,2008,1,762038,2302.22960725076,21.1330874400288,-77.025605,38.929581,1
109,PCS,Cesar Chavez PCS Parkside Upper,"3701 Hayes Street,  NE",834,NA,NA,HS,36015,Facility Allowance,3379632,NA,NA,1,NA,NA,356,7,228,40,0.640449438202247,0.112359550561798,0.0196629213483146,101,9493.34831460674,93.839566847147,3,2013,1,1126544,3164.44943820225,31.2798556157157,-76.9491059,38.9013653,7
947,DCPS,CHOICE at Emery ,1720 1st St NE,NA,NA,NA,ALT,"63,800",Stabilized,NA,NA,NA,NA,NA,NA,5,0,0,0,0%,0%,0%,NA,NA,NA,NA,NA,NA,NA,NA,NA,-77.006549,38.9127078,5
224,DCPS,Cleveland ES,1825 8th St  NW,320,Full,2004,ES,"53,000",Full Modernization,"$20,270,264",$0,"$20,270,264",1,Cardozo EC (6-8),Cardozo HS (9-12),308,47,137,36,44%,12%,15%,172,"$63,345",$382,NA,NA,1,NA,NA,NA,-77.0225898,38.9150577,1
442,DCPS,Columbia Heights MS/HS ,3101 16th St  NW,1400,Full,2006,MS/HS,"325,218",Full Replacement,"$78,652,173",$0,"$78,652,173",1,,Cardozo HS (9-12),1384,429,744,153,54%,11%,31%,235,"$56,180",$242,NA,NA,1,NA,NA,NA,-77.035464,38.929437,1
105,PCS,Community Academy Amos I,"1300 Allison Street, NW",957,NA,NA,ES,55000,Facility Allowance,13482960,NA,NA,1,NA,NA,590,213,261,53,0.442372881355932,0.0898305084745763,0.361016949152542,93,22852.4745762712,245.144727272727,10,2006,1,1348296,2285.24745762712,24.5144727272727,-77.030868,38.944517,4
158,PCS,Community Academy Amos II,"33 Riggs Road, NE",600,NA,NA,ES,50600,Facility Allowance,5565731,NA,NA,1,NA,NA,329,86,193,18,0.586626139817629,0.0547112462006079,0.261398176291793,154,16917.1155015198,109.994683794466,10,2006,1,556573.1,1691.71155015198,10.9994683794466,-77.006643,38.9549208,5
106,PCS,Community Academy Butler Global,"1400 1st Street, NW",1020,NA,NA,ES,1.00E+05,Facility Allowance,7549324,NA,NA,1,NA,NA,523,51,272,35,0.520076481835564,0.0669216061185468,0.0975143403441683,191,14434.6539196941,75.49324,10,2006,1,754932.4,1443.46539196941,7.549324,-77.0132341,38.9090757,5
108,PCS,Community Academy CAPCS Online,"1351 Nicholson Street, NW",217,NA,NA,ES/MS,20100,Facility Allowance,3128675,NA,NA,1,NA,NA,123,0,43,21,0.349593495934959,0.170731707317073,0,163,25436.3821138211,155.655472636816,9,2007,1,347630.555555556,2826.26467931346,17.2950525152018,-77.031579,38.9604804,4
216,PCS,Community College Preparatory Academy PCS,"2405 Martin Luther King Jr. Avenue, SE",155,NA,NA,ADULT,11000,Facility Allowance,1339656,NA,NA,1,NA,NA,273,0,0,1,0,0.00366300366300366,0,40,4907.16483516484,121.786909090909,2,2014,1,669828,2453.58241758242,60.8934545454545,-76.9927263,38.8628141,8
455,DCPS,Coolidge HS,6315 5th St  NW,1105,Phase 0,NA,HS,"271,300",Stabilized,"$2,537,691","$116,633,000","$122,176,717",1,,Coolidge HS,395,50,301,104,76%,26%,13%,687,"$2,297",$9,NA,NA,1,NA,NA,NA,-77.019874,38.9662526,4
3069,PCS,Creative Minds International PCS,"3224 16th Street, NW",203,NA,NA,ES,17976,Facility Allowance,1282032,NA,NA,1,NA,NA,181,10,22,48,0.121546961325967,0.265193370165746,0.0552486187845304,99,7083.04972375691,71.3190921228304,3,2013,1,427344,2361.01657458564,23.7730307076101,-77.0368058,38.9315518,1
199,PCS,D C  Bilingual PCS,"1420 Columbia Road, NW",809,NA,NA,ES,"50,000",Facility Allowance,9258495,NA,NA,0,NA,NA,364,180,130,56,0.357142857142857,0.153846153846154,0.494505494505495,206,25435.4258241758,123.4466,11,2005,1,841681.363636364,2312.31143856144,11.2224181818182,-77.0332308,38.927174,1
199,PCS,D C  Bilingual PCS,"3029 14th Street, NW",809,NA,NA,ES,"25,000",Facility Allowance,9258495,NA,NA,0,NA,NA,364,180,130,56,0.357142857142857,0.153846153846154,0.494505494505495,206,25435.4258241758,123.4466,11,2005,1,841681.363636364,2312.31143856144,11.2224181818182,-77.0322034,38.9283049,1
1110,PCS,D C  Preparatory Benning Campus PCS,"100 41st Street, NE",849,NA,NA,ES,80352,Facility Allowance,6611687,NA,NA,1,NA,NA,442,8,231,22,0.52262443438914,0.0497737556561086,0.0180995475113122,182,14958.5678733032,82.2840377339705,7,2009,1,944526.714285714,2136.93826761474,11.7548625334244,-76.9449133,38.890775,7
130,PCS,D C  Preparatory Edgewood Elementary Campus PCS,"707 Edgewood Street, NE",499,NA,NA,ES,50050,Facility Allowance,9341738,NA,NA,1,NA,NA,432,20,197,28,0.456018518518519,0.0648148148148148,0.0462962962962963,116,21624.3935185185,186.648111888112,8,2008,1,1167717.25,2703.04918981481,23.331013986014,-76.9955558,38.9241765,5
196,PCS,D C  Preparatory Edgewood Middle Campus PCS," 701 Edgewood Street, NE",340,NA,NA,MS,39746,Facility Allowance,6749878,NA,NA,1,NA,NA,294,1,101,46,0.343537414965986,0.156462585034014,0.00340136054421769,135,22958.768707483,169.825340914809,8,2008,1,843734.75,2869.84608843537,21.2281676143511,-76.9959848,38.9247765,5
218,PCS,D C Preparatory Benning Middle Campus,"101 41st Street, NE",NA,NA,NA,MS,26784,Facility Allowance,697944,NA,NA,1,NA,NA,152,1,67,22,0.440789473684211,0.144736842105263,0.00657894736842105,176,4591.73684210526,26.0582437275986,2,2014,1,348972,2295.86842105263,13.0291218637993,-76.944288,38.891529,7
3070,PCS,DC Scholars PCS,"5601 East Capitol Street, SE",443,NA,NA,ES,31000,Facility Allowance,2641008,NA,NA,1,NA,NA,389,0,252,38,0.647814910025707,0.0976863753213368,0,80,6789.2236503856,85.1938064516129,3,2013,1,880336,2263.07455012853,28.397935483871,-76.9216306,38.8893227,7
NA,DCPS,DCPS MultiSchool,NA,NA,NA,NA,NA,"12,000,000",NA,"$1,194,062,423","$242,169,537","$1,470,746,329",1,NA,NA,NA,NA,NA,NA,NA,NA,NA,NA,NA,116.035357666667,NA,NA,1,NA,NA,NA,NA,NA,NA
405,DCPS,Deal MS,3815 Fort Dr  NW,1370,Full,2009,MS,"223,689",Full Modernization,"$93,890,555",$0,"$93,890,555",1,,Wilson HS,1312,47,99,166,8%,13%,4%,170,"$53,668",$329,NA,NA,1,NA,NA,NA,-77.0744601,38.953494,3
234,PCS,Democracy Prep PCS-Congress Heights,"3100 Martin Luther King Jr. Avenue, SE",890,NA,NA,ES,42528,Facility Allowance,1904640,NA,NA,1,NA,NA,620,1,436,70,0.703225806451613,0.112903225806452,0.00161290322580645,69,3072,44.7855530474041,1,2015,1,1904640,3072,44.7855530474041,-76.9981457,38.8434987,8
248,PCS,District of Columbia International School,"3220 16th Street, NW",308,NA,NA,MS,20217,Facility Allowance,645120,NA,NA,1,NA,NA,210,26,44,40,0.20952380952381,0.19047619047619,0.123809523809524,96,3072,31.9097788989464,1,2015,1,645120,3072,31.9097788989464,-77.0367897,38.9313597,1
231,DCPS,Drew ES,5600 Eads St  NE,362,Phase I,2010,ES,"72,800",Partial Modernization,"$4,898,637",$0,"$4,938,279",1,Kelly Miller MS,Woodson HS,201,0,166,34,83%,17%,0%,362,"$13,532",$67,NA,NA,1,NA,NA,NA,-76.9198214,38.8961276,7
467,DCPS,Dunbar HS,101 N St. NW,1100,Full,2013,HS,"260,000",Full Replacement,"$122,897,293","-$250,000","$125,144,890",1,,Dunbar HS,653,6,483,198,74%,30%,1%,398,"$111,725",$473,NA,NA,1,NA,NA,NA,-77.013134,38.9078377,5
146,PCS,E L  Haynes PCS Georgia Avenue,"3600 Georgia Avenue, NW",516,NA,NA,MS,45484,Facility Allowance,6850144,NA,NA,1,NA,NA,377,54,157,77,0.416445623342175,0.204244031830239,0.143236074270557,121,18170.1432360743,150.60557558702,6,2010,1,1141690.66666667,3028.35720601238,25.1009292645033,-77.0243669,38.9343788,1
1138,PCS,E.L. Haynes Kansas Avenue - High School,"4501 Kansas Avenue, NW",861,NA,NA,HS,17647,Facility Allowance,5596776,NA,NA,1,NA,NA,422,66,218,90,0.516587677725118,0.213270142180095,0.156398104265403,42,13262.5023696682,317.151697172324,5,2011,1,1119355.2,2652.50047393365,63.4303394344648,-77.022371,38.945657,4
1206,PCS,E.L. Haynes PCS Kansas Avenue (Elementary School),"4502 Kansas Avenue, NW",NA,NA,NA,ES,53800,Facility Allowance,2661384,NA,NA,1,NA,NA,358,108,126,39,0.35195530726257,0.108938547486034,0.301675977653631,150,7434.03351955307,49.4681040892193,3,2012,1,887128,2478.01117318436,16.4893680297398,-77.0234943,38.9451898,4
195,PCS,Eagle Academy PCS - Eagle Center at McGogney,"3400 Wheeler Road, SE",1241,NA,NA,ES,60000,Facility Allowance,10094728,NA,NA,1,NA,NA,774,2,466,83,0.602067183462532,0.107235142118863,0.00258397932816537,78,13042.2842377261,168.245466666667,6,2010,1,1682454.66666667,2173.71403962102,28.0409111111111,-76.9936441,38.8406263,8
1125,PCS,Eagle Academy PCS New Jersey Avenue Campus,"1017 New Jersey Avenue, SE",190,NA,NA,ES,8500,Facility Allowance,2333312,NA,NA,1,NA,NA,146,0,79,11,0.541095890410959,0.0753424657534247,0,58,15981.5890410959,274.507294117647,6,2010,1,388885.333333333,2663.59817351598,45.7512156862745,-77.0051215,38.877859,6
138,PCS,Early Childhood Academy PCS,"4025 9th Street, SE",233,NA,NA,ES,15458,Facility Allowance,4742251,NA,NA,0,NA,NA,259,0,167,22,0.644787644787645,0.0849420849420849,0,76,18309.8494208494,306.782960279467,8,2006,1,592781.375,2288.73117760618,38.3478700349334,-76.990566,38.8317414,8
138,PCS,Early Childhood Academy PCS,"4301 9th Street, SE ",67,NA,NA,ES,4458,Facility Allowance,4742251,NA,NA,0,NA,NA,259,0,167,22,0.644787644787645,0.0849420849420849,0,76,18309.8494208494,1063.76200089726,8,2006,1,592781.375,2288.73117760618,132.970250112158,-76.989567,38.8310119,8
457,DCPS,Eastern HS,1700 East Capitol St NE,1100,Full,2010,HS,"310,721",Full Modernization,"$74,502,874",$0,"$74,503,071",1,,Eastern HS,1025,3,714,296,70%,29%,0%,303,"$67,730",$240,NA,NA,1,NA,NA,NA,-76.9795263,38.8903247,6
232,DCPS,Eaton ES,3301 Lowell St  NW,415,Phase 0,NA,ES,"49,096",Stabilized,"$81,414","$15,552,000","$15,633,414",1,Hardy MS,Wilson HS,475,2,161,63,63%,25%,1%,191,$196,$2,NA,NA,1,NA,NA,NA,-77.0657958,38.9328813,3
407,DCPS,Eliot-Hine MS,1830 Constitution Ave  NE,742,Phase 0,NA,MS,"155,072",Stabilized,"$210,957","$40,911,043","$42,653,975",1,,Eastern HS,256,2,161,63,63%,25%,1%,603,$284,$1,NA,NA,1,NA,NA,NA,-76.978566,38.892612,6
471,DCPS,Ellington School of the Arts HS,3500 R St NW,500,Full,2017,HS,"258,072",Full Modernization,"$34,081,441","$61,688,778","$180,437,856",1,,City-Wide ,523,5,175,25,33%,5%,1%,320,"$68,163",$132,NA,NA,1,NA,NA,NA,-77.0704265,38.9131435,2
159,PCS,Elsie Whitlow Stokes Community Freedom PCS,"3700 Oakview Terrace, NE",450,NA,NA,ES,32341,Facility Allowance,11118784,NA,NA,1,NA,NA,350,63,62,26,0.177142857142857,0.0742857142857143,0.18,92,31767.9542857143,343.798398317925,17,1999,1,654046.117647059,1868.70319327731,20.223435195172,-76.9899667,38.934916,5
1113,PCS,Excel Academy PCS,"2501 Martin Luther King Jr. Avenue, SE",1292,NA,NA,ES,67508,Facility Allowance,8332774,NA,NA,1,NA,NA,569,0,366,23,0.64323374340949,0.0404217926186292,0,119,14644.5940246046,123.433874503763,7,2009,1,1190396.28571429,2092.0848606578,17.6334106433946,-76.9952947,38.8600148,8
1211,PCS,Excel Academy PCS LEAD,"2502 Martin Luther King Jr. Avenue, SE",NA,NA,NA,MS,19288,Facility Allowance,476160,NA,NA,1,NA,NA,155,0,100,27,0.645161290322581,0.174193548387097,0,124,3072,24.6868519286603,1,2015,1,476160,3072,24.6868519286603,-76.9939568,38.8608853,8
NA,DCPS,Ferebee-Hope ES (closed),3999 8th St SE,NA,NA,2009,ES,"193,800",Partial Modernization,"$4,532,419",$0,"$4,532,419",1,NA,NA,NA,NA,NA,NA,NA,NA,NA,NA,NA,$23,NA,NA,0,NA,NA,NA,NA,NA,8
409,DCPS,Francis-Stevens ES/MS,2425 N St  NW,437,Phase 0,NA,ES/MS,"95,088",Stabilized,"$1,314,689","$20,178,000","$22,278,000",1,,Cardozo HS (9-12),414,25,109,58,26%,14%,6%,230,"$3,008",$14,NA,NA,1,NA,NA,NA,-77.0521452,38.9076351,2
361,PCS,Friendship PCS Blow Pierce Elementary,"725 19th Street, NE",925,NA,NA,ES,52944,Facility Allowance,20538240,NA,NA,2,NA,NA,379,6,289,14,0.762532981530343,0.0369393139841689,0.0158311345646438,140,54190.6068601583,387.92384406165,12,2003,1,1711520,4515.88390501319,32.3269870051375,-76.976256,38.898544,7
362,PCS,Friendship PCS Blow-Pierce Middle,"725 19th Street, NE",NA,NA,NA,MS,NA,Facility Allowance,654336,NA,NA,2,NA,NA,213,1,147,42,0.690140845070423,0.197183098591549,0.00469483568075117,NA,3072,NA,1,2015,1,654336,3072,NA,-76.976256,38.898544,7
363,PCS,Friendship PCS Chamberlain Elementary,"1345 Potomac Avenue, SE",1046,NA,NA,ES,80860,Facility Allowance,23717234,NA,NA,2,NA,NA,375,1,235,18,0.626666666666667,0.048,0.00266666666666667,216,63245.9573333333,293.312317585951,12,2003,1,1976436.16666667,5270.49644444444,24.4426931321626,-76.986715,38.879337,6
364,PCS,Friendship PCS Chamberlain Middle,"1345 Potomac Avenue, SE",NA,NA,NA,MS,NA,Facility Allowance,1053696,NA,NA,2,NA,NA,343,0,200,59,0.583090379008746,0.17201166180758,0,NA,3072,NA,1,2015,1,1053696,3072,NA,-76.986715,38.879337,6
113,PCS,Friendship PCS SouthEast Academy,"645 Milwaukee Place, SE",950,NA,NA,ES,58539,Facility Allowance,17344193,NA,NA,1,NA,NA,576,0,412,56,0.715277777777778,0.0972222222222222,0,102,30111.4461805556,296.284408684808,12,2003,1,1445349.41666667,2509.28718171296,24.6903673904007,-76.996974,38.847472,8
1124,PCS,Friendship PCS Tech Prep,"2705 Martin Luther King Jr. Avenue, SE",1048,NA,NA,MS/HS,66349,Facility Allowance,6129328,NA,NA,0,NA,NA,499,1,353,90,0.707414829659319,0.180360721442886,0.00200400801603206,133,12283.2224448898,92.380111230011,6,2010,1,1021554.66666667,2047.20374081496,15.3966852050018,-76.996307,38.848279,8
365,PCS,Friendship PCS Woodridge Elementary,"2959 Carlton Avenue, NE",600,NA,NA,ES,37000,Facility Allowance,18909379,NA,NA,1,NA,NA,284,8,127,12,0.447183098591549,0.0422535211267606,0.028169014084507,130,66582.3204225352,511.064297297297,12,2003,1,1575781.58333333,5548.52670187793,42.5886914414414,-76.9662004,38.9294874,5
366,PCS,Friendship PCS Woodridge Middle,"2960 Carlton Avenue, NE",NA,NA,NA,MS,NA,Facility Allowance,516096,NA,NA,1,NA,NA,168,1,75,35,0.446428571428571,0.208333333333333,0.00595238095238095,NA,3072,NA,1,2015,1,516096,3072,NA,-76.967187,38.930047,5
186,PCS,Friendship PCS Woodson Collegiate Academy,"4095 Minnesota Avenue, NE",1500,NA,NA,HS,152000,Facility Allowance,37822656,NA,NA,1,NA,NA,883,0,517,165,0.585503963759909,0.186862967157418,0,172,42834.2650056625,248.833263157895,12,2003,1,3151888,3569.52208380521,20.7361052631579,-76.9459338,38.897574,7
238,DCPS,Garfield ES,2435 Alabama Ave  SE,365,Phase 0,NA,ES,"58,904",Stabilized,"$1,082,203","$12,583,908","$14,338,493",1,Johnson MS,Ballou HS,284,0,233,35,82%,12%,0%,207,"$2,965",$18,NA,NA,1,NA,NA,NA,-76.9702748,38.8517226,8
NA,DCPS,Garnett-Patterson MS (swing),2001 10th St NW,NA,NA,NA,MS,"82,700",Stabilized,"$5,560,714",$0,"$5,560,714",1,NA,NA,NA,NA,NA,NA,NA,NA,NA,NA,NA,$67,NA,NA,0,NA,NA,NA,NA,NA,1
239,DCPS,Garrison ES,1200 S St  NW,356,Phase 0,NA,ES,"60,200",Stabilized,"$655,646","$20,000,000","$24,000,000",1,Cardozo EC (6-8),Cardozo HS (9-12),244,35,117,40,48%,16%,14%,247,"$1,842",$11,NA,NA,1,NA,NA,NA,-77.028449,38.9138357,2
246,DCPS,Hardy MS,1819 35th St  NW,485,Full,2008,MS,"107,200",Full Modernization,"$50,758,871",$0,"$50,758,871",1,,Wilson HS,386,NA,96,NA,25%,NA,NA,NA,"$104,657",$473,NA,NA,1,NA,NA,NA,-77.0686338,38.9153226,2
245,PCS,Harmony DC PCS-School of Excellence,"62 T Street, NE",220,NA,NA,ES,20000,Facility Allowance,202752,NA,NA,1,NA,NA,66,0,40,8,0.606060606060606,0.121212121212121,0,303,3072,10.1376,1,2015,1,202752,3072,10.1376,-77.0066585,38.916063,5
413,DCPS,Hart MS,601 Mississippi Ave  SE,912,Phase I,2011,MS,"210,700",Partial Modernization,"$13,075,759",$0,"$13,214,760",1,NA,Ballou HS,479,0,393,128,82%,27%,0%,440,"$14,337",$62,NA,NA,1,NA,NA,NA,-76.9972081,38.8375662,8
227,DCPS,HD Cooke ES,2525 17th St NW,440,Full,2009,ES,"85,696",Full Modernization,"$32,500,688",$0,"$32,500,688",1,CHEC (6-8),Cardozo HS (9-12),400,164,215,42,54%,11%,41%,214,"$73,865",$379,NA,NA,1,NA,NA,NA,-77.0383975,38.9239587,1
258,DCPS,Hearst ES,3950 37th St  NW,330,Full,2015,ES,"62,309",Full Modernization,"$35,678,706","$361,277","$43,433,519",1,Deal MS,Wilson HS,291,28,39,25,13%,9%,10%,214,"$108,117",$573,NA,NA,1,NA,NA,NA,-77.0717568,38.9405368,3
249,DCPS,Hendley ES,425 Chesapeake St  SE,520,Phase I,2013,ES,"73,200",Partial Modernization,"$15,937,127",$0,"$16,150,915",1,Hart MS,Ballou HS,503,0,453,84,90%,17%,0%,146,"$30,648",$218,NA,NA,1,NA,NA,NA,-76.9991386,38.8286428,8
131,PCS,Hope Community PCS Lamond Campus,"6200 Kansas Avenue, NE",500,NA,NA,ES,41000,Facility Allowance,8335030,NA,NA,1,NA,NA,358,13,148,22,0.41340782122905,0.0614525139664804,0.0363128491620112,115,23282.2067039106,203.293414634146,8,2008,1,1041878.75,2910.27583798883,25.4116768292683,-77.0085903,38.9658162,4
114,PCS,Hope Community PCS Tolson Campus,"2917 8th Street, NE",540,NA,NA,ES/MS,33571,Facility Allowance,9509758,NA,NA,1,NA,NA,517,34,264,43,0.51063829787234,0.0831721470019342,0.0657640232108317,65,18394.1160541586,283.273003485151,8,2008,1,1188719.75,2299.26450676983,35.4091254356439,-76.9946003,38.927028,5
251,DCPS,Houston ES,1100 50th Pl  NE,398,Phase 0,NA,ES,"59,896",Stabilized,"$1,191,032","$15,693,000","$16,943,000",1,Kelly Miller MS,Woodson HS,279,3,209,40,75%,14%,1%,215,"$2,993",$20,NA,NA,1,NA,NA,NA,-76.9302932,38.9054178,7
115,PCS,Howard University Middle School of Math and Science PCS,"405 Howard Place, NW",435,NA,NA,MS,20968,Facility Allowance,8215644,NA,NA,1,NA,NA,294,11,115,9,0.391156462585034,0.0306122448979592,0.0374149659863946,71,27944.3673469388,391.818199160626,10,2006,1,821564.4,2794.43673469388,39.1818199160626,-77.0188757,38.9228511,1
252,DCPS,Hyde-Addison ES,3219 O St  NW,330,Phase I,2014,ES,"37,504",Full Modernization,"$19,157,333","$22,284,976","$43,519,223",1,Hardy MS,Wilson HS,305,29,24,25,8%,8%,10%,123,"$58,053",$511,NA,NA,1,NA,NA,NA,-77.0648106,38.9081992,2
163,PCS,IDEA PCS,"1027 45th Street, NE",490,NA,NA,HS,70000,Facility Allowance,13450019,NA,NA,1,NA,NA,217,1,165,42,0.76036866359447,0.193548387096774,0.00460829493087558,323,61981.6543778802,192.143128571429,17,1999,1,791177.588235294,3645.97966928707,11.3025369747899,-76.937087,38.904173,7
134,PCS,Ideal Academy PCS North Capitol Street Campus ES,"6130 N Capitol Street, NW",500,NA,NA,ES/MS,35090,Facility Allowance,6508377,NA,NA,1,NA,NA,297,3,185,32,0.622895622895623,0.107744107744108,0.0101010101010101,118,21913.7272727273,185.476688515247,8,2008,1,813547.125,2739.21590909091,23.1845860644058,-77.0098236,38.9648647,4
200,PCS,Ingenuity Prep PCS,"4600 Livingston Road, SE",200,NA,NA,ES,31075,Facility Allowance,941472,NA,NA,2,NA,NA,201,0,148,22,0.736318407960199,0.109452736318408,0,155,4683.94029850746,30.2967658889783,2,2014,1,470736,2341.97014925373,15.1483829444891,-77.0031886,38.8239325,8
3064,PCS,Inspired Teaching Demonstration PCS,"200 Douglas Street, NE",620,NA,NA,ES/MS,40800,Facility Allowance,2824824,NA,NA,1,NA,NA,317,14,35,34,0.110410094637224,0.107255520504732,0.0441640378548896,129,8911.1167192429,69.2358823529412,4,2012,1,706206,2227.77917981073,17.3089705882353,-77.0025452,38.9236743,5
254,DCPS,Janney ES,4130 Albemarle St  NW,700,Full,2011,ES,"96,083",Full Modernization,"$37,443,325",$0,"$37,949,758",1,Deal MS,Wilson HS,693,30,8,38,1%,5%,4%,139,"$53,490",$390,NA,NA,1,NA,NA,NA,-77.0812196,38.9474491,3
433,DCPS,Jefferson MS,801 7th St SW,570,Phase 0,NA,MS,"108,992",Stabilized,$0,"$35,993,000","$35,993,000",1,,Eastern HS,277,NA,179,NA,65%,NA,NA,NA,$0,$0,NA,NA,1,NA,NA,NA,-77.0229317,38.8798501,6
339,DCPS,JO Wilson ES,660 K Street NE,480,Phase I,2010,ES,"98,896",Partial Modernization,"$4,264,356",$0,"$4,264,356",1,Stuart-Hobson MS,Eastern HS,466,6,232,47,50%,10%,1%,212,"$8,884",$43,NA,NA,1,NA,NA,NA,-76.9969383,38.9029977,6
416,DCPS,Johnson MS,1400 Bruce Pl  SE,730,Phase I,2013,MS,"182,496",Partial Modernization,"$18,602,234","-$5,857","$20,521,528",1,NA,Ballou HS,291,3,229,103,79%,35%,1%,627,"$25,483",$102,NA,NA,1,NA,NA,NA,-76.9836523,38.8511843,8
421,DCPS,Kelly Miller MS,301 49th St  NE,600,Full,2004,MS,"114,992",Full Replacement,"$10,614,880",$0,"$10,614,880",1,,Woodson HS,546,7,382,146,70%,27%,1%,211,"$17,691",$92,NA,NA,1,NA,NA,NA,-76.9321175,38.8933117,7
257,DCPS,Ketcham ES,1919 15th St  SE,325,Phase I,2012,ES,"88,288",Partial Modernization,"$8,328,691",$0,"$8,336,451",1,Kramer MS,Anacostia HS,309,0,265,37,86%,12%,0%,286,"$25,627",$94,NA,NA,1,NA,NA,NA,-76.9836485,38.8660524,8
272,DCPS,Key ES,5001 Dana Pl  NW,364,Full,2003,ES,"50,000",Full Modernization,"$13,007,488",$0,"$13,007,488",1,Hardy MS,Wilson HS,383,28,12,27,3%,7%,7%,131,"$35,735",$260,NA,NA,1,NA,NA,NA,-77.100542,38.926599,3
259,DCPS,Kimball ES,3375 Minnesota Ave  SE,398,Phase 0,NA,ES,"83,392",Stabilized,$0,"$17,696,000","$17,696,000",1,Sousa MS,Anacostia HS,348,0,268,48,77%,14%,0%,240,$0,$0,NA,NA,1,NA,NA,NA,-76.9575142,38.8828821,7
344,DCPS,"King, M.L. ES",3200 6th St  SE,444,Phase 0,NA,ES,"65,496",Stabilized,"$4,118,755","$372,458","$6,567,738",1,Hart MS,Ballou HS,372,2,327,55,88%,15%,1%,176,"$9,276",$63,NA,NA,1,NA,NA,NA,-76.9980914,38.8425064,8
116,PCS,KIPP DC AIM PCS Academy PCS,"2600 Douglass Place, SE",1900,NA,NA,MS,144000,Facility Allowance,8354731,NA,NA,2,NA,NA,321,1,189,74,0.588785046728972,0.230529595015576,0.00311526479750779,449,26027.199376947,58.0189652777778,10,2006,1,835473.1,2602.7199376947,5.80189652777778,-76.9912057,38.8569692,8
236,PCS,KIPP DC Arts & Technology Academy PCS,"5300 Blaine Street, NE",764,NA,NA,PK3-K,26950,Facility Allowance,651264,NA,NA,2,NA,NA,212,1,129,14,0.608490566037736,0.0660377358490566,0.00471698113207547,127,3072,24.1656400742115,1,2015,1,651264,3072,24.1656400742115,-76.9258818,38.8917411,7
1123,PCS,KIPP DC College Prep PCS,"1401 Brentwood Parkway, NE",500,NA,NA,HS,187423,Facility Allowance,5814288,NA,NA,1,NA,NA,454,0,232,86,0.511013215859031,0.18942731277533,0,413,12806.8017621145,31.0222758146012,6,2010,1,969048,2134.46696035242,5.17037930243353,-76.9944198,38.909317,5
209,PCS,KIPP DC Connect Academy,"1375 Mt Olivet Road, NE",1206,NA,NA,PK3-K,67000,Facility Allowance,1533672,NA,NA,2,NA,NA,301,2,159,21,0.528239202657807,0.0697674418604651,0.00664451827242525,223,5095.25581395349,22.8906268656716,2,2014,1,766836,2547.62790697674,11.4453134328358,-76.9814619,38.907437,5
1122,PCS,KIPP DC Discover PCS,"2600 Douglass Place, SE",NA,NA,NA,PK3-K,NA,Facility Allowance,4626760,NA,NA,2,NA,NA,330,0,203,22,0.615151515151515,0.0666666666666667,0,NA,14020.4848484848,NA,6,2010,1,771126.666666667,2336.74747474747,NA,-76.9912057,38.8569692,8
1129,PCS,KIPP DC GROW Academy PCS,"421 P Street, NW",1195,NA,NA,PK3-K,100671,Facility Allowance,3706464,NA,NA,2,NA,NA,312,3,140,17,0.448717948717949,0.0544871794871795,0.00961538461538462,323,11879.6923076923,36.8175939446315,5,2011,1,741292.8,2375.93846153846,7.3635187889263,-77.018128,38.909942,2
3071,PCS,KIPP DC Heights Academy PCS,"2600 Douglass Place, SE",NA,NA,NA,ES,NA,Facility Allowance,3161880,NA,NA,2,NA,NA,415,0,229,57,0.551807228915663,0.137349397590361,0,NA,7618.98795180723,NA,4,2012,1,790470,1904.74698795181,NA,-76.9912057,38.8569692,8
189,PCS,KIPP DC KEY Academy PCS,"4801 Benning Road, SE",1608,NA,NA,MS,84681,Facility Allowance,11203877,NA,NA,2,NA,NA,334,1,161,37,0.482035928143713,0.110778443113772,0.0029940119760479,254,33544.5419161677,132.306857500502,12,2003,1,933656.416666667,2795.37849301397,11.0255714583752,-76.9343991,38.8826376,7
190,PCS,KIPP DC LEAD Academy,"421 P Street, NW",NA,NA,NA,ES,NA,Facility Allowance,1893744,NA,NA,2,NA,NA,302,4,127,27,0.420529801324503,0.0894039735099338,0.0132450331125828,NA,6270.67549668874,NA,3,2013,1,631248,2090.22516556291,NA,-77.018128,38.909942,2
132,PCS,KIPP DC LEAP Academy PCS,"4801 Benning Road, SE",NA,NA,NA,PK3-K,NA,Facility Allowance,6204843,NA,NA,2,NA,NA,304,0,177,19,0.582236842105263,0.0625,0,NA,20410.6677631579,NA,8,2008,1,775605.375,2551.33347039474,NA,-76.9343991,38.8826376,7
242,PCS,KIPP DC Northeast Academy PCS,"1375 Mt Olivet Road, NE",NA,NA,NA,MS,NA,Facility Allowance,387072,NA,NA,2,NA,NA,126,1,70,22,0.555555555555556,0.174603174603175,0.00793650793650794,NA,3072,NA,1,2015,1,387072,3072,NA,-76.9814619,38.907437,5
1121,PCS,KIPP DC Promise PCS,"4801 Benning Road, SE",NA,NA,NA,ES,NA,Facility Allowance,5553600,NA,NA,2,NA,NA,400,3,219,55,0.5475,0.1375,0.0075,NA,13884,NA,6,2010,1,925600,2314,NA,-76.9343991,38.8826376,7
237,PCS,KIPP DC Quest Academy PCS,"5300 Blaine Street, NE",NA,NA,NA,ES,40425,Facility Allowance,866304,NA,NA,2,NA,NA,282,1,176,43,0.624113475177305,0.152482269503546,0.00354609929078014,143,3072,21.4299072356215,1,2015,1,866304,3072,21.4299072356215,-76.9258818,38.8917411,7
214,PCS,KIPP DC Spring Academy,"1375 Mt Olivet Road, NE",NA,NA,NA,ES,NA,Facility Allowance,616344,NA,NA,2,NA,NA,102,0,60,5,0.588235294117647,0.0490196078431373,0,NA,6042.58823529412,NA,2,2014,1,308172,3021.29411764706,NA,-76.9814619,38.907437,5
121,PCS,KIPP DC WILL Academy PCS,"421 P Street, NW",NA,NA,NA,MS,NA,Facility Allowance,7645919,NA,NA,2,NA,NA,344,3,138,66,0.401162790697674,0.191860465116279,0.00872093023255814,NA,22226.5087209302,NA,9,2007,1,849546.555555556,2469.61208010336,NA,-77.018128,38.909942,2
417,DCPS,Kramer MS,1700 Q St  SE,600,Phase I,2014,MS,"153,984",Partial Modernization,"$30,951,777",$0,"$35,059,047",1,NA,Anacostia HS,333,0,267,110,80%,33%,0%,462,"$51,586",$201,NA,NA,1,NA,NA,NA,-76.9799006,38.8717022,8
261,DCPS,Lafayette ES,5701 Broad Branch Rd  NW,516,Full,2016,ES,"113,600",Full Modernization,"$9,939,007","$59,373,105","$78,650,000",1,Deal MS,Wilson HS,697,21,19,47,3%,7%,3%,163,"$19,262",$87,NA,NA,1,NA,NA,NA,-77.0679076,38.9664459,4
262,DCPS,Langdon ES/MS,1900 Evarts St  NE,500,Phase I,2015,ES,"101,392",Partial Modernization,"$19,828,246",$0,"$20,824,380",1,McKinley MS,Dunbar HS,340,17,191,56,56%,16%,5%,298,"$39,656",$196,NA,NA,1,NA,NA,NA,-76.9774768,38.9249969,5
370,DCPS,Langley ES,101 T Street NE,530,Phase II,2011,ES,"100,000",Partial Modernization,"$10,253,618",$0,"$10,273,670",1,McKinley MS,Dunbar HS,297,3,185,44,62%,15%,1%,337,"$19,346",$103,NA,NA,1,NA,NA,NA,-77.005475,38.914235,5
264,DCPS,LaSalle-Backus ES/MS,501 Riggs Road NE,400,Phase I,2012,ES/MS,"63,000",Partial Modernization,"$14,206,295",$0,"$14,545,500",1,,Coolidge HS,349,106,183,50,52%,14%,30%,181,"$35,516",$225,NA,NA,1,NA,NA,NA,-76.9997759,38.9597849,4
193,PCS,Latin American Montessori Bilingual (LAMB) PCS,"1375 Missouri Avenue, NW",566,NA,NA,ES,16468,Facility Allowance,6050898,NA,NA,0,NA,NA,342,129,40,38,0.116959064327485,0.111111111111111,0.37719298245614,107,17692.6842105263,165.018490236719,12,2004,1,504241.5,1474.39035087719,13.7515408530599,-77.0323824,38.9622483,4
193,PCS,Latin American Montessori Bilingual (LAMB) PCS,"1800 Perry Street, NE",566,NA,NA,ES,"20,200",Facility Allowance,6050898,NA,NA,2,NA,NA,342,129,40,38,0.116959064327485,0.111111111111111,0.37719298245614,107,17692.6842105263,165.018490236719,12,2004,1,504241.5,1474.39035087719,13.7515408530599,-76.9783016,38.9363691,5
104,PCS,Latin American Youth Center Career Academy,"3047 15th Street, NW",225,NA,NA,ALT,15500,Facility Allowance,1168680,NA,NA,2,NA,NA,190,36,0,6,0,0.0315789473684211,0.189473684210526,82,6150.94736842105,75.3987096774194,3,2013,1,389560,2050.31578947368,25.1329032258065,-77.0357768,38.9285225,1
266,DCPS,Leckie ES,4201 M L  King Ave  SW,480,Phase I,2012,ES,"65,000",Partial Modernization,"$595,860",$0,"$595,860",1,Hart MS,Ballou HS,478,8,226,53,47%,11%,2%,136,"$1,241",$9,NA,NA,1,NA,NA,NA,-77.0132599,38.8282308,8
228,PCS,Lee Montessori PCS,"301 Douglas Street, NE",162,NA,NA,ES,13200,Facility Allowance,227328,NA,NA,1,NA,NA,74,0,10,5,0.135135135135135,0.0675675675675676,0,178,3072,17.2218181818182,1,2015,1,227328,3072,17.2218181818182,-77.0020346,38.9234284,5
271,DCPS,Ludlow-Taylor ES,659 G St  NE,362,Phase I,2013,ES,"66,896",Partial Modernization,"$11,489,803","-$1,026,290","$11,762,825",1,Stuart-Hobson MS,Eastern HS,340,3,109,31,32%,9%,1%,197,"$31,740",$172,NA,NA,1,NA,NA,NA,-76.9963992,38.8985144,6
884,DCPS,Luke Moore HS,1001 Monroe St NE,350,Full,2006,ALT,"65,528",Full Modernization,"$16,352,780",$0,"$16,352,780",1,,City-Wide ,350,2,0,41,0%,12%,1%,187,$0,$0,NA,NA,1,NA,NA,NA,-76.992102,38.93199,5
NA,DCPS,Macfarland MS (swing),4400 Iowa Ave NW,NA,NA,NA,MS,"110,000",Stabilized,"$874,564","$50,026,000","$53,650,564",1,NA,NA,NA,NA,NA,NA,NA,NA,NA,NA,NA,$80,NA,NA,0,NA,NA,NA,NA,NA,4
NA,DCPS,Malcolm X ES (closed),1351 Alabama Avenue SE,NA,NA,NA,ES,"110,800",Stabilized,NA,$0,$0,1,NA,NA,NA,NA,NA,NA,NA,NA,NA,NA,NA,NA,NA,NA,0,NA,NA,NA,NA,NA,8
308,DCPS,Malcolm X ES at Green,1500 Mississippi Ave SE ,248,Phase 0,NA,ES,"77,700",Stabilized,NA,$0,"$52,963",1,Johnson MS,Ballou HS,244,NA,207,NA,85%,NA,NA,NA,NA,NA,NA,NA,1,NA,NA,NA,-76.9836028,38.8416964,8
265,DCPS,Mamie D. Lee Special Ed.,100 Galatin St NW,120,NA,NA,SPED,"45,800",Stabilized,"$757,876",$0,"$757,876",0,NA,NA,56,4,29,0,52%,0%,7%,1438,"$6,316",$17,NA,NA,1,NA,NA,NA,-77.0119091,38.9523138,4
273,DCPS,Mann ES,4430 Newark St NW,370,Full,2015,ES,"60,969",Full Modernization,"$34,565,362","-$500,000","$37,197,238",1,Hardy MS,Wilson HS,302,34,4,12,1%,4%,11%,202,"$93,420",$567,NA,NA,1,NA,NA,NA,-77.087418,38.934026,3
284,DCPS,Marie Reed ES,2201 18th St. NW,470,Phase 0,2017,ES,"162,688",Full Modernization,"$2,970,097","$54,503,000","$64,904,196",1,Col Hts. Ed. Campus (6-8),Cardozo HS (9-12),393,189,143,41,36%,10%,48%,414,"$6,319",$18,NA,NA,1,NA,NA,NA,-77.0416361,38.9183938,1
NA,DCPS,Marshall ES/MS (closed),3100 Fort Lincoln Drive NE,NA,NA,NA,ES/MS,"103,800",Stabilized,$0,$0,$0,1,NA,NA,NA,NA,NA,NA,NA,NA,NA,NA,NA,$0,NA,NA,0,NA,NA,NA,NA,NA,5
135,PCS,Mary McLeod Bethune Day Academy PCS Slowe Campus,"1404 Jackson Street, NE",450,NA,NA,ES/MS,56927,Facility Allowance,6686938,NA,NA,1,NA,NA,381,8,237,35,0.622047244094488,0.0918635170603675,0.020997375328084,149,17551.0183727034,117.465139564706,8,2008,1,835867.25,2193.87729658793,14.6831424455882,-76.9863281,38.9295686,5
274,DCPS,Maury ES,1250 Constitution Ave NE,300,Phase I,2011,ES,"46,800",Partial Modernization,"$6,444,395","$5,044,000","$12,620,745",1,Eliot-Hine MS,Eastern HS,366,2,48,23,13%,6%,1%,128,"$21,481",$138,NA,NA,1,NA,NA,NA,-76.9886668,38.8921729,6
101,PCS,Maya Angelou Evans Campus PCS,"5600 E Capitol Street, NE",646,NA,NA,ALT,78625,Facility Allowance,6961429,NA,NA,2,NA,NA,252,0,0,88,0,0.349206349206349,0,312,27624.7182539683,88.5396375198728,11,2005,1,632857.181818182,2511.33802308802,8.04905795635207,-76.9199181,38.8902854,7
137,PCS,Maya Angelou Young Adult Learning Center,"5600 E Capitol Street, NE",NA,NA,NA,ADULT,47175,Facility Allowance,1144584,NA,NA,2,NA,NA,147,0,1,17,0.00680272108843537,0.115646258503401,0,321,7786.28571428571,24.2625119236884,3,2013,1,381528,2595.42857142857,8.0875039745628,-76.9199181,38.8902854,7
NA,DCPS,MC Terrell ES (closed),"3301 Wheeler Road, SE",NA,NA,NA,ES,"112,000",Stabilized,"$1,706,121",$0,"$1,706,121",1,NA,NA,NA,NA,NA,NA,NA,NA,NA,NA,NA,$15,NA,NA,0,NA,NA,NA,NA,NA,8
435,DCPS,McKinley MS,151 T St NE,340,Full,2014,MS,"62,000",Full Modernization,NA,NA,NA,2,,Dunbar HS,202,5,119,31,59%,15%,2%,307,NA,NA,NA,NA,1,NA,NA,NA,-77.004889,38.9145641,5
458,DCPS,McKinley Tech. HS,151 T St NE,1160,Full,2004,HS,"282,200",Full Modernization,"$77,382,544",$0,"$77,443,210",2,,City-Wide ,645,6,239,12,37%,2%,1%,438,"$66,709",$274,NA,NA,1,NA,NA,NA,-77.004889,38.9145641,5
165,PCS,Meridian PCS,"2120 13th Street, NW",718,NA,NA,ES/MS,61900,Facility Allowance,20265712,NA,NA,1,NA,NA,639,176,294,77,0.460093896713615,0.120500782472613,0.275430359937402,97,31714.7292644757,327.394378029079,16,2000,1,1266607,1982.17057902973,20.4621486268174,-77.0299375,38.9185351,1
280,DCPS,Miner ES,601 15th St  NE,550,Full,2003,ES,"76,896",Full Replacement,"$6,391,359",$0,"$6,391,359",1,Eliot-Hine MS,Eastern HS,398,7,296,66,74%,17%,2%,193,"$11,621",$83,NA,NA,1,NA,NA,NA,-76.9829046,38.8979598,6
NA,DCPS,Montgomery ES (closed),"421 P Street, NW",NA,NA,NA,ES,"73,700",Stabilized,"$6,934,511",$0,"$6,934,511",1,NA,NA,NA,NA,NA,NA,NA,NA,NA,NA,NA,$94,NA,NA,0,NA,NA,NA,NA,NA,6
285,DCPS,Moten ES,1565 Morris Rd SE,480,Full,2012,ES,"99,696",Full Modernization,"$27,716,993",$0,"$27,856,881",1,Kramer MS,Anacostia HS,395,0,348,65,88%,16%,0%,252,"$57,744",$278,NA,NA,1,NA,NA,NA,-76.9828753,38.8564345,8
3065,PCS,Mundo Verde Bilingual PCS,"30 P Street, NW",897,NA,NA,ES,36148,Facility Allowance,3140088,NA,NA,1,NA,NA,404,84,57,22,0.141089108910891,0.0544554455445545,0.207920792079208,89,7772.49504950495,86.867544539117,4,2012,1,785022,1943.12376237624,21.7168861347792,-77.0103408,38.9092812,5
287,DCPS,Murch ES,4810 36th St  NW,488,Phase 0,2018,ES,"47,696",Full Modernization,"$748,083","$63,156,000","$68,294,774",1,Deal MS,Wilson HS,620,56,18,23,3%,4%,9%,77,"$1,533",$16,NA,NA,1,NA,NA,NA,-77.0704556,38.9527132,3
288,DCPS,Nalle ES,219 50th St  SE,400,Phase I,2012,ES,"83,900",Partial Modernization,"$11,521,407",$0,"$11,570,572",1,Kelly Miller MS,Woodson HS,384,6,295,45,77%,12%,2%,218,"$28,804",$137,NA,NA,1,NA,NA,NA,-76.9311143,38.8860027,7
1120,PCS,National Collegiate Prep PCS,"4600 Livingston Road, SE",400,NA,NA,HS,50000,Facility Allowance,4199632,NA,NA,2,NA,NA,306,0,213,40,0.696078431372549,0.130718954248366,0,163,13724.2875816993,83.99264,6,2010,1,699938.666666667,2287.38126361656,13.9987733333333,-77.0031886,38.8239325,8
290,DCPS,Noyes ES/MS,2725 10th St  NE,391,Full,2004,ES,"51,496",Full Modernization,"$24,719,301",$0,"$24,719,301",1,Brookland MS,Dunbar HS,289,11,182,44,63%,15%,4%,178,"$63,221",$480,NA,NA,1,NA,NA,NA,-76.9915985,38.9250297,5
169,PCS,Options PCS,"1375 E Street, NE",1127,NA,NA,MS/HS,66622,Facility Allowance,5525896,NA,NA,1,NA,NA,268,0,218,168,0.813432835820896,0.626865671641791,0,249,20619.0149253731,82.9440124883672,6,2010,1,920982.666666667,3436.50248756219,13.8240020813945,-76.986356,38.895719,6
291,DCPS,Orr ES,2200 Minnesota Ave  SE,392,Phase 0,NA,ES,"75,900",Stabilized,NA,"$41,995,000","$44,995,000",1,Kramer MS,Anacostia HS,384,2,295,54,77%,14%,1%,198,NA,NA,NA,NA,1,NA,NA,NA,-76.974441,38.8720446,8
292,DCPS,"Oyster-Adams ES/MS, Adams",2020 19th St. NW,324,Phase 0,NA,MS,"59,400",Stabilized,"$3,803,375","$12,236,000","$16,039,375",1,NA,Wilson HS,314,NA,NA,NA,NA,NA,NA,NA,"$11,739",$64,NA,NA,1,NA,NA,NA,-77.0443928,38.9172561,1
292,DCPS,"Oyster-Adams ES/MS, Oyster",2801 Calvert St NW,350,Full,2001,ES,"47,984",Full Replacement,$0,$0,NA,1,NA,Wilson HS,263,NA,NA,NA,NA,NA,NA,NA,$0,$0,NA,NA,1,NA,NA,NA,-77.0572024,38.9235663,3
294,DCPS,Patterson ES,4399 South Capitol Terr  SW,382,Full,2004,ES,"76,896",Full Replacement,"32,570,942",$0,"32,570,942",1,Hart MS,Ballou HS,380,1,323,44,85%,12%,0%,202,"$14,047",$70,NA,NA,1,NA,NA,NA,-77.0081965,38.8267436,8
222,PCS,Paul Public Charter School - International High School,"5800 8th Street, NW",NA,NA,NA,HS,59423,Facility Allowance,1757400,NA,NA,2,NA,NA,325,24,159,42,0.489230769230769,0.129230769230769,0.0738461538461539,183,5407.38461538462,29.5744072160611,2,2014,1,878700,2703.69230769231,14.7872036080306,-77.0248615,38.9613283,4
170,PCS,Paul Public Charter School - Middle School,"5800 8th Street, NW",780,NA,NA,MS,68565,Facility Allowance,21115814,NA,NA,2,NA,NA,376,24,160,47,0.425531914893617,0.125,0.0638297872340425,182,56159.079787234,307.967826150368,15,2001,1,1407720.93333333,3743.93865248227,20.5311884100246,-77.0248615,38.9613283,4
295,DCPS,Payne ES,1445 C St SE,348,Full,2016,ES,"83,792",Full Modernization,"$22,389,213","$27,450","$27,815,086",1,Eliot-Hine MS,Eastern HS,277,5,165,30,60%,11%,2%,302,"$64,337",$267,NA,NA,1,NA,NA,NA,-76.984559,38.884501,6
301,DCPS,Peabody ES,425 C St  NE,228,Phase I,2013,PK3-K,"37,800",Partial Modernization,"$7,028,816",$0,"$7,099,258",1,Stuart-Hobson MS,Eastern HS,227,4,16,10,7%,4%,2%,167,"$30,828",$186,NA,NA,1,NA,NA,NA,-76.9998748,38.8928043,6
161,PCS,Perry Street Prep PCS,"1800 Perry Street, NE",1250,NA,NA,PK3-12,171000,Facility Allowance,28592629,NA,NA,2,NA,NA,619,10,343,93,0.554119547657512,0.150242326332795,0.0161550888529887,276,46191.6462035541,167.208356725146,16,2000,1,1787039.3125,2886.97788772213,10.4505222953216,-76.9783016,38.9363691,5
478,DCPS,Phelps ACE HS,704 26th Street NE,512,Full,2008,HS,"146,976",Full Modernization,"$66,594,065",$0,"$66,594,065",1,,City-Wide ,323,9,166,42,51%,13%,3%,455,$0,$0,NA,NA,1,NA,NA,NA,-76.9721088,38.9020565,5
299,DCPS,Plummer ES,4601 Texas Ave  SE,448,Phase I,2014,ES,"69,392",Partial Modernization,"$13,846,933","$26,191","$14,299,544",1,Sousa MS,Anacostia HS,428,24,354,54,83%,13%,6%,162,"$30,908",$200,NA,NA,1,NA,NA,NA,-76.9396434,38.88707,7
117,PCS,Potomac Preparatory PCS,"4401 8th Street, NE",650,NA,NA,ES/MS,42016,Facility Allowance,7783669,NA,NA,1,NA,NA,425,0,261,50,0.614117647058824,0.117647058823529,0,99,18314.5152941176,185.254879093679,10,2006,1,778366.9,1831.45152941176,18.5254879093679,-76.9944091,38.9430337,5
300,DCPS,Powell ES,1350 Upshur St  NW,304,Full,2016,ES,"76,848",Full Modernization,"$25,490,976","$2,504,026","$44,744,174",1,Col. Hts. EC (6-8),Cardozo HS (9-12),446,250,202,57,45%,13%,56%,172,"$83,852",$332,NA,NA,1,NA,NA,NA,-77.031615,38.941504,4
NA,DCPS,PR Harris ES/MS (closed),4600 Livingston Rd SE,NA,NA,NA,ES/MS,"348,700",Stabilized,$700,$0,$700,1,NA,NA,NA,NA,NA,NA,NA,NA,NA,NA,NA,$0,NA,NA,0,NA,NA,NA,NA,NA,8
316,DCPS,Randle Highlands ES,1650 30th St  SE,450,Full,2002,ES,"72,476",Full Replacement,"21,543,183",$0,"21,543,183",1,Sousa MS,Anacostia HS,360,3,228,49,63%,14%,1%,201,"$18,647",$116,NA,NA,1,NA,NA,NA,-76.9638892,38.870144,7
302,DCPS,Raymond ES/MS,915 Spring Rd  NW,615,Phase 0,NA,ES/MS,"73,600",Stabilized,$0,"$19,567,000","$19,567,000",1,,Roosevelt HS,581,245,308,96,53%,17%,42%,127,$0,$0,NA,NA,1,NA,NA,NA,-77.0261699,38.9359279,4
NA,DCPS,RH Terrell MS (demolished),1000 1st St NW,NA,NA,NA,MS,"143,700",Demolished,"$1,446,215",$0,"$1,446,215",1,NA,NA,NA,NA,NA,NA,NA,NA,NA,NA,NA,$10,NA,NA,0,NA,NA,NA,NA,NA,6
3067,PCS,Richard Wright PCS for Journalism and Media Arts,"770 M Street, SE",398,NA,NA,MS/HS,28000,Facility Allowance,2883960,NA,NA,1,NA,NA,305,1,225,58,0.737704918032787,0.19016393442623,0.00327868852459016,92,9455.60655737705,102.998571428571,4,2012,1,720990,2363.90163934426,25.7496428571429,-76.995574,38.877003,6
NA,DCPS,River Terrace Special Ed. ,420 34th St NE,180,Full,2015,SPED,"77,707",Full Modernization,"$32,133,707","-$2,200,000","$35,717,175",1,NA,NA,NA,NA,NA,NA,NA,NA,NA,NA,"$178,521",$414,NA,NA,1,NA,NA,NA,-76.9575223,38.8949506,7
NA,DCPS,Ron Brown Specialty HS,4800 Meade St. NE,500,NA,2017,HS,"156,000",Full Modernization,$0,"$44,597,000","$47,347,000",1,NA,City-Wide ,NA,NA,NA,NA,NA,NA,NA,NA,NA,$0,NA,NA,0,NA,NA,NA,NA,NA,7
459,DCPS,Roosevelt HS,4301 13th St NW,1030,Full,2016,HS,"331,840",Full Modernization,"$117,015,598","$1,887,406","$143,557,836",2,,Roosevelt HS,476,143,394,141,83%,30%,30%,697,"$113,607",$353,NA,NA,1,NA,NA,NA,-77.0278294,38.9433952,4
456,DCPS,Roosevelt STAY HS,4301 13th St NW,NA,Full,2015,ADULT,NA,NA,NA,"$1,887,406",,2,,City-Wide ,802,NA,NA,141,NA,30%,30%,697,NA,NA,NA,NA,1,NA,NA,NA,-77.0278294,38.9433952,4
173,PCS,Roots PCS,"15 Kennedy Street, NW",230,NA,NA,ES,"9,000",Facility Allowance,3896368,NA,NA,0,NA,NA,95,2,39,7,0.410526315789474,0.0736842105263158,0.0210526315789474,109,41014.4,375.589743589744,16,2000,1,243523,2563.4,23.474358974359,-77.010142,38.9567798,4
173,PCS,Roots PCS,"6222 North Capitol Street, NW",230,NA,NA,ES,1374,Facility Allowance,3896368,NA,NA,0,NA,NA,95,2,39,7,0.410526315789474,0.0736842105263158,0.0210526315789474,109,41014.4,375.589743589744,16,2000,1,243523,2563.4,23.474358974359,-77.0094126,38.9661824,4
305,DCPS,Ross ES,1730 R St  NW,176,Phase I,2012,ES,"22,400",Partial Modernization,"$2,604,666",$0,"$2,612,974",1,Cardozo EC (6-8),Cardozo HS (9-12),166,28,10,5,6%,3%,17%,135,"$14,799",$116,NA,NA,1,NA,NA,NA,-77.039739,38.9123701,2
NA,DCPS,Rudolph ES (closed),5200 2nd Street NW,NA,NA,NA,ES,"84,400",Stabilized,"$100,000",$0,"$100,000",1,NA,NA,NA,NA,NA,NA,NA,NA,NA,NA,NA,$1,NA,NA,0,NA,NA,NA,NA,NA,4
307,DCPS,Savoy ES,2400 Shannon Pl SE,430,Full,2009,ES,"86,800",Full Modernization,"$21,059,646",$0,"$21,059,646",1,Kramer MS,Anacostia HS,408,4,333,51,82%,13%,1%,213,"$48,976",$243,NA,NA,1,NA,NA,NA,-76.9936331,38.8628014,8
174,PCS,School for Educational Evolution and Development (SEED) PCS,"4300 C Street, SE",488,NA,NA,MS/HS,48128,Facility Allowance,31414511,NA,NA,1,NA,NA,336,0,172,57,0.511904761904762,0.169642857142857,0,143,93495.5684523809,652.728370179521,17,1999,1,1847912.41176471,5499.73932072829,38.3957864811483,-76.9464327,38.8869027,7
466,DCPS,School Without Walls HS,2130 G St NW,520,Full,2009,HS,"74,000",Full Modernization,"$40,512,741",$0,"$40,512,741",1,,City-Wide ,590,NA,91,NA,15%,NA,NA,NA,$0,$0,NA,NA,1,NA,NA,NA,-77.0479046,38.8980853,2
175,DCPS,School-Within-School at Goding,920 F STREET NE,450,Phase I,2005,ES,"59,200",Partial Modernization,"$1,365,487","$12,028,931","$16,383,000",1,NA,City-Wide ,126,1,70,37,56%,29%,1%,470,"$3,034",$23,NA,NA,1,NA,NA,NA,-76.9931808,38.8976365,6
309,DCPS,Seaton ES,1503 10th St  NW,325,Phase I,2011,ES,"65,000",Partial Modernization,"$4,298,925",$0,"$4,302,057",1,Cardozo EC (6-8),Cardozo HS (9-12),295,125,148,32,50%,11%,42%,220,"$13,227",$66,NA,NA,1,NA,NA,NA,-77.0252248,38.9106173,2
197,PCS,Sela PCS,"6015 Chillum Place, NE",NA,NA,NA,ES,15680,Facility Allowance,483192,NA,NA,1,NA,NA,86,8,24,8,0.27906976744186,0.0930232558139535,0.0930232558139535,NA,5618.51162790698,30.8158163265306,2,2014,1,241596,2809.25581395349,15.4079081632653,-77.0074503,38.9639099,4
312,DCPS,Sharpe  Special Ed.,4300 13th St NW,120,NA,NA,SPED,"80,500",Stabilized,"$1,332,075",$0,"$2,089,951",2,NA,NA,60,7,31,3,52%,5%,12%,1342,"$11,101",$17,NA,NA,1,NA,NA,NA,-77.03121,38.94344,4
NA,DCPS,Shaw MS (closed),925 Rhode Island Ave NW,NA,NA,NA,MS,"230,400",Stabilized,"$10,000",$0,"$10,000",1,NA,NA,NA,NA,NA,NA,NA,NA,NA,NA,NA,$0,NA,NA,0,NA,NA,NA,NA,NA,6
313,DCPS,Shepherd ES,7800 14th St NW,400,Phase I,2016,ES,"79,696",Full Modernization,"$20,462,934","$1,274,389","$31,576,280",1,Deal MS,Wilson HS,318,6,59,39,19%,12%,2%,251,"$51,157",$257,NA,NA,1,NA,NA,NA,-77.034304,38.98471,4
3066,PCS,Shining Stars Montessori PCS,"6017 Chillum Place, NE",NA,NA,NA,PK3-K,13580,Facility Allowance,947496,NA,NA,1,NA,NA,118,12,20,1,0.169491525423729,0.00847457627118644,0.101694915254237,NA,8029.62711864407,69.7714285714286,4,2012,1,236874,2007.40677966102,17.4428571428571,-77.007573,38.9640197,4
315,DCPS,Simon ES,401 Mississippi Ave  SE,325,Phase I,2012,ES,"66,192",Partial Modernization,"$8,505,311",$0,"$8,672,620",1,Hart MS,Ballou HS,293,2,227,38,77%,13%,1%,226,"$26,170",$128,NA,NA,1,NA,NA,NA,-77.0000152,38.8359119,8
322,DCPS,Smothers ES,4400 Brooks St  NE,344,Phase 0,NA,ES,"43,000",Stabilized,"$152,322","$12,679,000","$12,831,322",1,Kelly Miller MS,Woodson HS,275,6,203,30,74%,11%,2%,156,$443,$4,NA,NA,1,NA,NA,NA,-76.9384696,38.8936613,7
187,PCS,Somerset PCS,"3301 Wheeler Road, SE",1149,NA,NA,MS,112000,Facility Allowance,1217280,NA,NA,1,NA,NA,240,0,160,44,0.666666666666667,0.183333333333333,0,467,5072,10.8685714285714,2,2014,1,608640,2536,5.43428571428571,-76.9939903,38.842272,8
427,DCPS,Sousa MS,3650 Ely Pl SE,636,Full,2008,MS,"136,000",Full Modernization,"$34,545,250",$0,"$34,545,250",1,NA,Anacostia HS,284,0,209,82,74%,29%,0%,479,$0,$0,NA,NA,1,NA,NA,NA,-76.953055,38.8840586,7
1047,PCS,St. Coletta Special Education PCS,"1901 Independence Avenue, SE",525,NA,NA,SPED,99540,Facility Allowance,6315254,NA,NA,1,NA,NA,252,20,111,251,0.44047619047619,0.996031746031746,0.0793650793650794,395,25060.5317460317,63.444384167169,9,2007,1,701694.888888889,2784.50352733686,7.04937601857433,-76.9764947,38.8868079,6
319,DCPS,Stanton ES,2701 Naylor Rd  SE,586,Full,2016,ES,"95,000",Full Modernization,"$23,307,939","$2,165,644","$36,035,000",1,Kramer MS,Anacostia HS,578,0,502,94,87%,16%,0%,164,"$39,775",$245,NA,NA,1,NA,NA,NA,-76.9686199,38.8592905,8
321,DCPS,Stoddert ES,4001 Calvert St  NW,320,Full,2010,ES,"65,200",Full Modernization,"$18,707,417",$0,"$18,707,417",1,Hardy MS,Wilson HS,418,72,18,15,4%,4%,17%,156,"$58,461",$287,NA,NA,1,NA,NA,NA,-77.078913,38.922673,3
428,DCPS,Stuart-Hobson MS,410 E St  NE,450,Full,2015,MS,"115,242",Full Modernization,"$44,653,267","$1,190,116","$47,666,762",1,,Eastern HS,423,3,143,83,34%,20%,1%,272,"$99,229",$387,NA,NA,1,NA,NA,NA,-77.0000602,38.8965658,6
324,DCPS,Takoma ES/MS,7010 Piney Branch Rd  NW,450,Full,2012,ES/MS,"118,992",Full Modernization,"$26,979,598",$0,"$27,036,559",1,,Coolidge HS,442,113,189,70,43%,16%,26%,269,"$59,955",$227,NA,NA,1,NA,NA,NA,-77.022757,38.975217,4
168,PCS,The Next Step PCS,"3047 15th Street, NW",375,NA,NA,ALT,31352,Facility Allowance,3142236,NA,NA,2,NA,NA,363,203,0,13,0,0.0358126721763085,0.559228650137741,86,8656.29752066116,100.224419494769,7,2006,1,448890.857142857,1236.61393152302,14.3177742135384,-77.0357768,38.9285225,1
325,DCPS,Thomas ES,650 Anacostia Ave NE,474,Phase I,2013,ES,"87,600",Partial Modernization,"$7,563,320",$0,"$7,572,071",1,Kelly Miller MS,Woodson HS,408,6,295,44,72%,11%,1%,215,"$15,956",$86,NA,NA,1,NA,NA,NA,-76.952024,38.901224,7
326,DCPS,Thomson ES,1200 L St  NW,320,Full,2006,ES,"74,992",Full Modernization,"$25,521,091",$0,"$25,521,091",1,Jefferson Acad. MS,Eastern HS,272,141,124,40,46%,15%,52%,276,"$79,753",$340,NA,NA,1,NA,NA,NA,-77.028505,38.9033859,2
191,PCS,Thurgood Marshall Academy PCS,"2427 Martin Luther King Jr. Avenue, SE",416,NA,NA,HS,63625,Facility Allowance,12321572,NA,NA,1,NA,NA,395,0,216,50,0.546835443037975,0.126582278481013,0,161,31193.853164557,193.659284872299,14,2002,1,880112.285714286,2228.13236889693,13.832806062307,-76.9937918,38.8623418,8
183,PCS,Tree of Life Community PCS,"2315 18th Place, NE",1393,NA,NA,ES/MS,28076,Facility Allowance,10057948,NA,NA,1,NA,NA,286,2,185,25,0.646853146853147,0.0874125874125874,0.00699300699300699,98,35167.6503496504,358.240062686992,15,2001,1,670529.866666667,2344.51002331002,23.8826708457995,-76.9777082,38.9207757,5
327,DCPS,Truesdell ES/MS,800 Ingraham St  NW,542,Phase I,2011,ES/MS,"69,600",Partial Modernization,"$4,465,045","$7,489,000","$11,954,045",1,,Roosevelt HS,526,239,290,104,55%,20%,45%,132,"$8,238",$64,NA,NA,1,NA,NA,NA,-77.0244158,38.9539256,4
328,DCPS,Tubman ES,3101 13th St  NW,500,Phase I,2009,ES,"66,592",Partial Modernization,"$3,644,743",$0,"$3,644,743",1,Col. Hts. EC (6-8),Cardozo HS (9-12),498,167,302,69,61%,14%,34%,134,"$7,289",$55,NA,NA,1,NA,NA,NA,-77.0297009,38.9286359,1
329,DCPS,Turner ES,3264 Stanton Rd SE,530,Full,2013,ES,"101,093",Full Modernization,"$27,580,545",$0,"$27,695,424",1,Johnson MS,Ballou HS,392,0,333,52,85%,13%,0%,258,"$52,039",$273,NA,NA,1,NA,NA,NA,-76.9804398,38.8473486,8
198,PCS,Two Rivers PCS,"1227 4th Street, NE ",686,NA,NA,ES/MS,"33,076",Facility Allowance,8446894,NA,NA,0,NA,NA,518,20,126,107,0.243243243243243,0.206563706563707,0.0386100386100386,98,16306.7451737452,165.60913635918,8,2005,1,1055861.75,2038.34314671815,20.7011420448976,-77.0001838,38.9067354,6
198,PCS,Two Rivers PCS,"1234 4th Street, NE",686,NA,NA,ES/MS,17.929,Facility Allowance,8446894,NA,NA,0,NA,NA,518,20,126,107,0.243243243243243,0.206563706563707,0.0386100386100386,98,16306.7451737452,165.60913635918,8,2005,1,1055861.75,2038.34314671815,20.7011420448976,-77.000978,38.90642,6
330,DCPS,Tyler ES,1001 G St  SE,564,Phase I,2010,ES,"69,600",Partial Modernization,"$3,750,929",$0,"$3,750,929",1,Jefferson Acad. MS,Eastern HS,522,9,239,74,46%,14%,2%,133,"$6,651",$54,NA,NA,1,NA,NA,NA,-76.9922965,38.8810182,6
NA,DCPS,Van Ness ES,1150 5th St SE,336,Full,2016,ES,"49,400",Full Modernization,"$10,556,642","$17,995,000","$32,448,396",1,Jefferson Acad. MS,Eastern HS,NA,NA,NA,NA,NA,NA,NA,NA,"$31,419",$214,NA,NA,1,NA,NA,NA,-76.999143,38.8767476,6
332,DCPS,Walker-Jones ES/MS,1125 New Jersey Ave NW,700,Full,2009,ES/MS,"95,000",Full Replacement,"$40,442,253",$0,"$40,442,253",1,,Dunbar HS,465,8,348,124,75%,27%,2%,204,"$57,775",$426,NA,NA,1,NA,NA,NA,-77.0140256,38.9045185,6
1118,PCS,Washington Latin PCS HS,"5201 2nd Street, NW",835,NA,NA,HS,29280,Facility Allowance,4643648,NA,NA,1,NA,NA,304,6,70,31,0.230263157894737,0.101973684210526,0.0197368421052632,96,15275.1578947368,158.594535519126,7,2009,1,663378.285714286,2182.16541353383,22.656362217018,-77.013189,38.953489,4
125,PCS,Washington Latin PCS MS,"5200 2nd Street, NW",835,NA,NA,MS,35040,Facility Allowance,6687433,NA,NA,1,NA,NA,366,3,16,29,0.0437158469945355,0.0792349726775956,0.00819672131147541,96,18271.674863388,190.851398401826,7,2009,1,955347.571428571,2610.23926619828,27.2644854859752,-77.0140391,38.9538896,4
178,PCS,Washington Math Science Tech PCS,"1920 Bladensburg Road, NE",420,NA,NA,HS,49116,Facility Allowance,13661934,NA,NA,1,NA,NA,335,3,222,72,0.662686567164179,0.214925373134328,0.00895522388059702,147,40781.8925373134,278.156486684583,17,1999,1,803643.176470588,2398.93485513608,16.3621462755637,-76.9737654,38.9164261,5
474,DCPS,Washington Metro. HS,300 Bryant Street NW,350,Phase 0,NA,ALT,"49,496",Stabilized,$0,"$9,900,000","$9,900,000",1,,City-Wide ,244,NA,0,NA,0%,NA,NA,NA,$0,$0,NA,NA,1,NA,NA,NA,-77.0167156,38.9202168,1
1117,PCS,Washington Yu Ying PCS,"220 Taylor Street, NE",610,NA,NA,ES,41118,Facility Allowance,7254586,NA,NA,1,NA,NA,528,31,22,30,0.0416666666666667,0.0568181818181818,0.0587121212121212,78,13739.7462121212,176.433338197383,7,2009,1,1036369.42857143,1962.82088744589,25.2047625996262,-77.0036779,38.941395,5
333,DCPS,Watkins ES,420 12th St  SE,587,Phase 0,2017,ES,"69,296",Full Modernization,"$2,675,972","$30,313,978","$39,400,200",1,Stuart-Hobson MS,Eastern HS,500,4,98,45,20%,9%,1%,139,"$4,559",$39,NA,NA,1,NA,NA,NA,-76.9898004,38.8834823,6
336,DCPS,West ES/MS,1338 Farragut St  NW,278,Phase 0,NA,ES/MS,"69,642",Stabilized,$0,"$35,095,000","$35,095,000",1,,Roosevelt HS,267,27,112,44,42%,16%,10%,261,$0,$0,NA,NA,1,NA,NA,NA,-77.032481,38.9513341,4
335,DCPS,Wheatley ES/MS,1299 Neal St NE,500,Full,2009,ES/MS,"86,368",Full Modernization,"$42,645,563",$0,"$42,645,768",1,,Dunbar HS,463,NA,364,NA,79%,NA,NA,NA,"$85,291",$494,NA,NA,1,NA,NA,NA,-76.9884533,38.9042927,5
338,DCPS,Whittier ES/MS,6201 5th St  NW,520,Phase I,2012,ES/MS,"71,092",Partial Modernization,"$5,208,611",$0,"$5,241,031",1,,Coolidge HS,350,38,214,74,61%,21%,11%,203,"$10,017",$73,NA,NA,1,NA,NA,NA,-77.019146,38.9658779,4
NA,DCPS,Wilkinson ES/MS (closed),2330 Pomeroy Road SE,NA,NA,NA,ES/MS,"144,900",Stabilized,"$500,000",$0,"$500,000",1,NA,NA,NA,NA,NA,NA,NA,NA,NA,NA,NA,$3,NA,NA,0,NA,NA,NA,NA,NA,8
210,PCS,William E. Doar Jr PCS,"705 Edgewood Street, NE",560,NA,NA,ES/MS,46835,Facility Allowance,6138356,NA,NA,1,NA,NA,439,13,223,35,0.507972665148064,0.0797266514806378,0.0296127562642369,107,13982.5876993166,131.06343546493,6,2005,1,1023059.33333333,2330.43128321944,21.8439059108217,-76.9957981,38.9236618,5
463,DCPS,Wilson HS,3950 Chesapeake St NW,1700,Full,2011,HS,"376,448",Full Modernization,"$114,246,156",$0,"$114,320,882",1,,Wilson HS,1788,106,550,263,31%,15%,6%,211,"$67,204",$303,NA,NA,1,NA,NA,NA,-77.0764147,38.9504147,3
464,DCPS,Woodson HS,540 55th St. NE,1000,Full,2011,HS,"253,406",Full Replacement,"$107,742,134",$0,"$107,779,131",1,,Woodson HS,639,6,501,193,78%,30%,1%,397,"$107,742",$425,NA,NA,1,NA,NA,NA,-76.9227134,38.8967763,7
128,PCS,Youthbuild PCS,3014 14th St NW,100,NA,NA,ALT,11709,Facility Allowance,2747123,NA,NA,1,NA,NA,112,7,0,10,0,0.0892857142857143,0.0625,105,24527.8839285714,234.616363481083,10,2006,1,274712.3,2452.78839285714,23.4616363481083,-77.0327382,38.9277886,1
,,,,,,,,,,,,,,,,,,,,,,,,,,,,,,,,,,