"School_ID","Agency","Address","maxOccupancy","Level","totalSQFT","MajorExp9815","TotalAllotandPlan1621","LifetimeBudget","unqBuilding","longitude","latitude","Ward","FeederMS","FeederHS","Total_Enrolled","Limited_English","At_Risk","SPED","AtRiskPer","SPEDPer","ESLPer","SpentPerMaxOccupancy","SpentPerSqFt","Open_Now","ProjectType","School"
202,"DCPS","533 48th Pl  NE",442,"ES",57100,8916,12115000,12123916,1,-76.933700916,38.897001477,7,"Kelly Miller MS","Woodson HS",262,1,214,42,0.816793893129771,0.16030534351145,0.00381679389312977,20.1719457013575,0.15614711033275,1,"Stabilized","Aiton Elementary"
203,"DCPS","401 Eye St  SW",400,"ES",70800,5993305,0,5993305,1,-77.018125299,38.879515067,6,"Jefferson Acad. MS","Eastern HS",345,6,254,90,0.736231884057971,0.260869565217391,0.0173913043478261,14983.2625,84.6512005649717,1,"Partial Modernization","Amidon-Bowen Elementary"
450,"DCPS","1601 16th St  SE",837,"HS",204992,68228069,0,68228069,1,-76.983077254,38.870083725,8,"","",661,0,586,186,0.886535552193646,0.281391830559758,0,81515.0167264038,332.83283737902,1,"Full Modernization","Anacostia High"
452,"DCPS","3401 4th St  SE",1520,"HS",356000,141737725,4007,141741732,0,-77.000975263,38.839382331,8,".","",755,0,644,276,0.852980132450331,0.365562913907285,0,93248.5032894737,398.139676966292,1,"Full Replacement","Ballou High"
462,"DCPS","3401 4th St  SE",NA,"ADULT",NA,NA,0,NA,0,-77.000975263,38.839382331,8,NA,NA,591,0,0,52,0,0.0879864636209814,0,NA,NA,1,NA,"Ballou STAY"
204,"DCPS","1755 Newton St  NW",563,"ES",79792,1446450,59943000,61389450,1,-77.040553444,38.934318023,1,"Deal MS","Wilson HS",508,279,181,54,0.356299212598425,0.106299212598425,0.549212598425197,2569.18294849023,18.1277571686385,1,"Full Modernization","Bancroft Elementary"
205,"DCPS","430 Decatur St  NW",486,"ES",72496,17867772,0,17867772,1,-77.01777708,38.948230613,4,"Truesdell or West EC (6th-8th)","Roosevelt HS",602,193,284,72,0.471760797342193,0.119601328903654,0.320598006644518,36764.962962963,246.465625689693,1,"Full Replacement","Barnard Elementary"
206,"DCPS","3600 Alabama Ave  SE",430,"ES",77488,14813933,-24188,14789745,1,-76.95560475,38.864349505,7,"Sousa MS","Anacostia HS",438,1,243,79,0.554794520547945,0.180365296803653,0.00228310502283105,34451.0069767442,191.177124199876,1,"Partial Modernization","Beers Elementary"
402,"DCPS","800 Euclid St  NW",620,"HS",180000,671104,77074000,77745104,1,-77.023976968,38.923832421,1,"","",449,3,113,0,0.251670378619154,0,0.0066815144766147,1082.42580645161,3.72835555555556,1,"Stabilized","Benjamin Banneker High"
212,"DCPS","301 North Carolina Ave  SE",369,"ES",47500,4475354,0,4475354,1,-77.00145985,38.884800874,6,"Jefferson Acad. MS","Eastern HS",368,5,23,22,0.0625,0.0597826086956522,0.0135869565217391,12128.3306233062,94.2179789473684,1,"Partial Modernization","Brent Elementary"
213,"DCPS","1300 Nicholson St NW",584,"ES/MS",78000,22265461,0,22265461,1,-77.030688846,38.960535392,4,"","Coolidge HS",639,379,302,78,0.472613458528951,0.122065727699531,0.593114241001565,38125.7893835616,285.454628205128,1,"Full Modernization","Brightwood Education Campus"
NA,"DCPS"," 1150  Michigan Avenue, NE",540,"MS",110000,58053351,-1202174,56851177,1,-76.99182,38.93741,5,NA,"Dunbar HS",NA,NA,NA,NA,NA,NA,NA,107506.205555556,527.757736363636,1,"Full Replacement","Brookland Middle"
404,"DCPS","850 26th St  NE",804,"ES/MS",215392,131951,20636000,20767951,1,-76.970667058,38.902598548,5,"","Eastern HS",353,23,241,56,0.68271954674221,0.158640226628895,0.0651558073654391,164.11815920398,0.612608639132373,1,"Stabilized","Browne Education Campus"
NA,"DCPS","3012 Georgia Ave NW",NA,NA,110700,1499358,0,1499358,1,NA,NA,1,NA,NA,NA,NA,NA,NA,NA,NA,NA,NA,13.5443360433604,0,"Demolished","Bruce Monroe ES (demolished)"
220,"DCPS","1820 Monroe St  NE",450,"ES/MS",69696,8239048,0,8239048,1,-76.97845637,38.933502326,5,"Brookland MS","Dunbar HS",297,14,156,53,0.525252525252525,0.178451178451178,0.0471380471380471,18308.9955555556,118.214072543618,1,"Partial Modernization","Burroughs Elementary"
221,"DCPS","801 Division Ave  NE",400,"ES",94992,2991980,0,2991980,1,-76.92445918,38.900565431,7,"Kelly Miller MS","Woodson HS",360,2,244,36,0.677777777777778,0.1,0.00555555555555556,7479.95,31.4971787097861,1,"Partial Modernization","Burrville Elementary"
247,"DCPS","301 53rd St  SE",438,"ES",56000,0,12606000,12606000,1,-76.926115499,38.883598497,7,"Kelly Miller MS","Woodson HS",291,2,229,40,0.786941580756014,0.13745704467354,0.00687285223367698,0,0,1,"Stabilized","C.W. Harris Elementary"
454,"DCPS","1200 Clifton St. NW",1070,"MS/HS",397400,131527974,0,131527974,1,-77.028470794,38.922172198,1,"","",781,266,573,188,0.733674775928297,0.240717029449424,0.340588988476312,122923.340186916,330.971248112733,1,"Full Modernization","Cardozo Education Campus"
947,"DCPS","1720 1st St NE",NA,"ALT",63800,NA,NA,NA,NA,-77.006775952,38.913502755,5,NA,NA,5,0,0,0,0,0,0,NA,NA,NA,"Stabilized","CHOICE Academy at Emery"
224,"DCPS","1825 8th St  NW",320,"ES",53000,20270264,0,20270264,1,-77.022707176,38.915144954,1,"Cardozo EC (6-8)","Cardozo EC (9-12)",308,47,137,36,0.444805194805195,0.116883116883117,0.152597402597403,63344.575,382.457811320755,1,"Full Modernization","Cleveland Elementary"
442,"DCPS","3101 16th St  NW",1400,"MS/HS",325218,78652173,0,78652173,1,-77.035858309,38.929544434,1,"","Cardozo HS (9-12)",1384,429,744,153,0.53757225433526,0.110549132947977,0.309971098265896,56180.1235714286,241.844464328543,1,"Full Replacement","Columbia Heights Education Campus (CHEC)"
455,"DCPS","6315 5th St  NW",1105,"HS",271300,2537691,116633000,119170691,1,-77.019578251,38.967284215,4,"","",395,50,301,104,0.762025316455696,0.263291139240506,0.126582278481013,2296.55294117647,9.35381865093992,1,"Stabilized","Coolidge High"
405,"DCPS","3815 Fort Dr  NW",1370,"MS",223689,73524856,0,73524856,1,-77.075199068,38.952896407,3,"","Wilson HS",1312,47,99,166,0.0754573170731707,0.126524390243902,0.0358231707317073,53667.7781021898,328.692318352713,1,"Full Modernization","Deal Middle"
231,"DCPS","5600 Eads St  NE",362,"ES",72800,4898637,0,4898637,1,-76.919927008,38.89599364,7,"Kelly Miller MS","Woodson HS",201,0,166,34,0.825870646766169,0.169154228855721,0,13532.1464088398,67.2889697802198,1,"Partial Modernization","Drew Elementary"
467,"DCPS","101 N St. NW",1100,"HS",260000,122897293,-250000,122647293,1,-77.014693861,38.908523215,5,"","",653,6,483,198,0.739663093415008,0.303215926493109,0.00918836140888208,111724.811818182,472.681896153846,1,"Full Replacement","Dunbar High"
457,"DCPS","1700 East Capitol St NE",1100,"HS",310721,74502874,0,74502874,1,-76.979684293,38.890402328,6,"","",1025,3,714,296,0.696585365853658,0.288780487804878,0.00292682926829268,67729.8854545455,239.774183270522,1,"Full Modernization","Eastern High"
232,"DCPS","3301 Lowell St  NW",415,"ES",49096,81414,15552000,15633414,1,-77.065821138,38.932726738,3,"Hardy MS","Wilson HS",475,43,26,35,0.0547368421052632,0.0736842105263158,0.0905263157894737,196.178313253012,1.65826136548802,1,"Stabilized","Eaton Elementary"
407,"DCPS","1830 Constitution Ave  NE",742,"MS",155072,210957,40911043,41122000,1,-76.978977919,38.892431159,6,"","Eastern HS",257,2,161,63,0.626459143968872,0.245136186770428,0.00778210116731518,284.308625336927,1.36038098431696,1,"Stabilized","Eliot-Hine Middle"
471,"DCPS","3500 R St NW",500,"HS",258072,34081441,61688778,95770219,1,-77.070307568,38.913446043,2,"","",523,5,175,25,0.334608030592734,0.0478011472275335,0.00956022944550669,68162.882,132.061754084132,1,"Full Modernization","Ellington School of the Arts"
238,"DCPS","2435 Alabama Ave  SE",365,"ES",58904,1082203,12583908,13666111,1,-76.970804777,38.851733042,8,"Johnson MS","Ballou HS",284,0,233,35,0.820422535211268,0.123239436619718,0,2964.9397260274,18.3723176694282,1,"Stabilized","Garfield Elementary"
NA,"DCPS","2001 10th St NW",NA,"MS",82700,5560714,0,5560714,1,NA,NA,1,NA,NA,NA,NA,NA,NA,NA,NA,NA,NA,67.2395888754534,0,"Stabilized","Garnett Patterson"
239,"DCPS","1200 S St  NW",356,"ES",60200,655646,20000000,20655646,1,-77.028612556,38.913900957,2,"Cardozo EC (6-8)","Cardozo EC (9-12)",244,35,117,40,0.479508196721311,0.163934426229508,0.14344262295082,1841.70224719101,10.8911295681063,1,"Stabilized","Garrison Elementary"
227,"DCPS","2525 17th St NW",440,"ES",85696,32500688,0,32500688,1,-77.038810584,38.923942751,1,"CHEC (6-8)","Cardozo EC (9-12)",400,164,215,42,0.5375,0.105,0.41,73865.2,379.255601194922,1,"Full Modernization","H.D. Cooke Elementary"
413,"DCPS","601 Mississippi Ave  SE",912,"MS",210700,13075759,0,13075759,1,-76.997178747,38.837737537,8,NA,"Ballou HS",479,0,393,128,0.820459290187891,0.267223382045929,0,14337.4550438596,62.0586568580921,1,"Partial Modernization","Hart Middle"
258,"DCPS","3950 37th St  NW",330,"ES",62309,35678706,361277,36039983,1,-77.071955219,38.940722313,3,"Deal MS","Wilson HS",291,28,39,25,0.134020618556701,0.0859106529209622,0.0962199312714777,108117.290909091,572.609189683673,1,"Full Modernization","Hearst Elementary"
249,"DCPS","425 Chesapeake St  SE",520,"ES",73200,15937127,0,15937127,1,-76.999184846,38.82898558,8,"Hart MS","Ballou HS",503,0,453,84,0.900596421471173,0.166998011928429,0,30648.3211538462,217.72031420765,1,"Partial Modernization","Hendley Elementary"
251,"DCPS","1100 50th Pl  NE",398,"ES",59896,1191032,15693000,16884032,1,-76.929947647,38.905414986,7,"Kelly Miller MS","Woodson HS",279,3,209,40,0.74910394265233,0.14336917562724,0.010752688172043,2992.54271356784,19.8850006678242,1,"Stabilized","Houston Elementary"
252,"DCPS","3219 O St  NW",330,"ES",37504,19157333,22284976,41442309,1,-77.064537819,38.908019234,2,"Hardy MS","Wilson HS",305,29,24,25,0.0786885245901639,0.0819672131147541,0.0950819672131148,58052.5242424242,510.807727175768,1,"Full Modernization","Hyde-Addison Elementary"
339,"DCPS","660 K Street NE",480,"ES",98896,4264356,0,4264356,1,-76.996589022,38.902757665,6,"Stuart-Hobson MS","Eastern HS",466,6,232,47,0.497854077253219,0.100858369098712,0.0128755364806867,8884.075,43.1196003882867,1,"Partial Modernization","J.O. Wilson Elementary"
254,"DCPS","4130 Albemarle St  NW",700,"ES",96083,37443325,0,37443325,1,-77.080994825,38.947550086,3,"Deal MS","Wilson HS",693,30,8,38,0.0115440115440115,0.0548340548340548,0.0432900432900433,53490.4642857143,389.697709272192,1,"Full Modernization","Janney Elementary"
416,"DCPS","1400 Bruce Pl  SE",730,"MS",182496,18602234,-5857,18596377,1,-76.983703681,38.851336572,8,NA,"Ballou HS",291,3,229,103,0.786941580756014,0.353951890034364,0.0103092783505155,25482.5123287671,101.932283447308,1,"Partial Modernization","Johnson Middle"
421,"DCPS","301 49th St  NE",600,"MS",114992,10614880,0,10614880,1,-76.932455065,38.893315031,7,"","HD Woodson HS",546,7,382,146,0.6996336996337,0.267399267399267,0.0128205128205128,17691.4666666667,92.3097258939752,1,"Full Replacement","Kelly Miller Middle"
257,"DCPS","1919 15th St  SE",325,"ES",88288,8328691,0,8328691,1,-76.983621162,38.86604236,8,"Kramer MS","Anacostia HS",309,0,265,37,0.857605177993528,0.119741100323625,0,25626.7415384615,94.3354816056542,1,"Partial Modernization","Ketcham Elementary"
272,"DCPS","5001 Dana Pl  NW",364,"ES",50000,13007488,0,13007488,1,-77.100527318,38.926801504,3,"Hardy MS","Wilson HS",383,28,12,27,0.031331592689295,0.0704960835509138,0.0731070496083551,35734.8571428571,260.14976,1,"Full Modernization","Key Elementary"
259,"DCPS","3375 Minnesota Ave  SE",398,"ES",83392,0,17696000,17696000,1,-76.957572707,38.883082756,7,"Sousa MS","Anacostia HS",348,0,268,48,0.770114942528736,0.137931034482759,0,0,0,1,"Stabilized","Kimball Elementary"
344,"DCPS","3200 6th St  SE",444,"ES",65496,4118755,372458,4491213,1,-76.998238991,38.842442852,8,"Hart MS","Ballou HS",372,2,327,55,0.879032258064516,0.147849462365591,0.00537634408602151,9276.47522522523,62.8855960669354,1,"Stabilized","King, M.L. Elementary"
417,"DCPS","1700 Q St  SE",600,"MS",153984,30951777,0,30951777,1,-76.980171305,38.87128607,8,NA,"Anacostia HS",333,0,267,110,0.801801801801802,0.33033033033033,0,51586.295,201.006448721945,1,"Partial Modernization","Kramer Middle"
261,"DCPS","5701 Broad Branch Rd  NW",516,"ES",113600,9939007,59373105,69312112,1,-77.068037122,38.96662722,4,"Deal MS","Wilson HS",697,21,19,47,0.0272596843615495,0.0674318507890961,0.03012912482066,19261.6414728682,87.4912588028169,1,"Full Modernization","Lafayette Elementary"
262,"DCPS","1900 Evarts St  NE",500,"ES",101392,19828246,0,19828246,1,-76.977081855,38.924703828,5,"McKinley MS","Dunbar HS",340,17,191,56,0.561764705882353,0.164705882352941,0.05,39656.492,195.560261164589,1,"Partial Modernization","Langdon Elementary"
370,"DCPS","101 T Street NE",530,"ES",100000,10253618,0,10253618,1,-77.005890393,38.915162564,5,"McKinley MS","Dunbar HS",297,3,185,44,0.622895622895623,0.148148148148148,0.0101010101010101,19346.4490566038,102.53618,1,"Partial Modernization","Langley Elementary"
264,"DCPS","501 Riggs Road NE",400,"ES/MS",63000,14206295,0,14206295,1,-76.999882544,38.959971809,4,"","Coolidge HS",349,106,183,50,0.524355300859599,0.143266475644699,0.303724928366762,35515.7375,225.496746031746,1,"Partial Modernization","LaSalle-Backus Education Campus"
266,"DCPS","4201 M L  King Ave  SW",480,"ES",65000,595860,0,595860,1,-77.012891913,38.828196449,8,"Hart MS","Ballou HS",478,8,226,53,0.472803347280335,0.110878661087866,0.0167364016736402,1241.375,9.16707692307692,1,"Partial Modernization","Leckie Elementary"
271,"DCPS","659 G St  NE",362,"ES",66896,11489803,-1026290,10463513,1,-76.996492494,38.898743808,6,"Stuart-Hobson MS","Eastern HS",340,3,109,31,0.320588235294118,0.0911764705882353,0.00882352941176471,31739.7872928177,171.756203659412,1,"Partial Modernization","Ludlow-Taylor Elementary"
884,"DCPS","1001 Monroe St NE",350,"ALT",65528,16352780,0,16352780,1,-76.992316326,38.932276047,5,"","",350,2,0,41,0,0.117142857142857,0.00571428571428571,46722.2285714286,249.554083750458,1,"Full Modernization","Luke Moore High"
NA,"DCPS","4400 Iowa Ave NW",NA,"MS",11000,874564,50026000,50900564,1,NA,NA,4,NA,NA,NA,NA,NA,NA,NA,NA,NA,NA,79.5058181818182,0,"Stabilized","Macfarland"
265,"DCPS","100 Galatin St NW",120,"SPED",45800,757876.134600158,0,757876.134600158,0,NA,NA,5,NA,NA,56,4,29,0,0.517857142857143,0,0.0714285714285714,6315.63445500132,16.5475138558986,1,"Stabilized","Mamiedlee"
273,"DCPS","4430 Newark St NW",370,"ES",60969,34565362,-500000,34065362,1,-77.087826194,38.934291971,3,"Hardy MS","Wilson HS",302,34,4,12,0.0132450331125828,0.0397350993377483,0.112582781456954,93419.8972972973,566.933392379734,1,"Full Modernization","Mann Elementary"
284,"DCPS","2201 18th St. NW",470,"ES",162688,2970097,54503000,57473097,1,-77.040529953,38.919167306,1,"Col Hts. Ed. Campus (6-8)","Cardozo EC (9-12)",393,189,143,41,0.363867684478371,0.104325699745547,0.480916030534351,6319.35531914894,18.2563987509835,1,"Full Modernization","Marie Reed Elementary"
274,"DCPS","1250 Constitution Ave NE",300,"ES",46800,6444395,5044000,11488395,1,-76.988657501,38.89218486,6,"Eliot-Hine MS","Eastern HS",366,2,48,23,0.131147540983607,0.0628415300546448,0.00546448087431694,21481.3166666667,137.700747863248,1,"Partial Modernization","Maury Elementary"
435,"DCPS","151 T St NE",340,"MS",62000,NA,NA,NA,0,-77.004122439,38.915219785,5,"","Dunbar HS",202,5,119,31,0.589108910891089,0.153465346534653,0.0247524752475248,NA,NA,1,"Full Modernization","McKinley Middle"
458,"DCPS","151 T St NE",1160,"HS",282200,77382544,0,77382544,0,-77.00488219,38.915210095,5,"","",645,6,239,12,0.370542635658915,0.0186046511627907,0.00930232558139535,66709.0896551724,274.211708008505,1,"Full Modernization","McKinley Technology High"
280,"DCPS","601 15th St  NE",550,"ES",76896,6391359,0,6391359,1,-76.982904319,38.897375681,6,"Eliot-Hine MS","Eastern HS",398,7,296,66,0.743718592964824,0.165829145728643,0.0175879396984925,11620.6527272727,83.1169241573034,1,"Full Replacement","Miner Elementary"
285,"DCPS","1565 Morris Rd SE",480,"ES",99696,27716993,0,27716993,1,-76.982943653,38.856657189,8,"Kramer MS","Anacostia HS",395,0,348,65,0.881012658227848,0.164556962025316,0,57743.7354166667,278.01509589151,1,"Full Modernization","Moten Elementary"
287,"DCPS","4810 36th St  NW",488,"ES",47696,748083,63156000,63904083,1,-77.070079209,38.952933189,3,"Deal MS","Wilson HS",620,56,18,23,0.0290322580645161,0.0370967741935484,0.0903225806451613,1532.95696721311,15.6843970144247,1,"Full Modernization","Murch Elementary"
288,"DCPS","219 50th St  SE",400,"ES",83900,11521407,0,11521407,1,-76.930796505,38.885954084,7,"Kelly Miller MS","Woodson HS",384,6,295,45,0.768229166666667,0.1171875,0.015625,28803.5175,137.323087008343,1,"Partial Modernization","Nalle Elementary"
290,"DCPS","2725 10th St  NE",391,"ES",51496,24719301,0,24719301,1,-76.991842884,38.925177646,5,"Brookland MS","Dunbar HS",289,11,182,44,0.629757785467128,0.152249134948097,0.0380622837370242,63220.7186700767,480.023710579462,1,"Full Modernization","Noyes Elementary"
291,"DCPS","2200 Minnesota Ave  SE",392,"ES",75900,NA,41995000,NA,1,-76.974484017,38.871796823,8,"Kramer MS","Anacostia HS",384,2,295,54,0.768229166666667,0.140625,0.00520833333333333,NA,NA,1,"Stabilized","Orr Elementary"
292,"DCPS","2020 19th St. NW",324,"MS",59400,3803375,12236000,16039375,1,-77.044377251,38.917309201,3,NA,"Wilson HS",314,NA,NA,NA,NA,NA,NA,11738.8117283951,64.0298821548822,1,"Stabilized","Oyster-Adams Bilingual School"
292,"DCPS","2801 Calvert St NW",350,"ES",47984,0,0,0,1,-77.044377251,38.917309201,3,NA,"Wilson HS",263,NA,NA,NA,NA,NA,NA,0,0,1,"Full Replacement","Oyster-Adams Bilingual School"
294,"DCPS","4399 South Capitol Terr  SW",382,"ES",76896,32570942,0,32570942,1,-77.008484709,38.826966026,8,"Hart MS","Ballou HS",380,1,323,44,0.85,0.115789473684211,0.00263157894736842,85264.2460732984,423.571343112776,1,"Full Replacement","Patterson Elementary"
295,"DCPS","1445 C St SE",348,"ES",83792,22389213,27450,22416663,1,-76.984194914,38.885132314,6,"Eliot-Hine MS","Eastern HS",277,5,165,30,0.595667870036101,0.108303249097473,0.0180505415162455,64336.8189655172,267.199887817453,1,"Full Modernization","Payne Elementary"
301,"DCPS","425 C St  NE",228,"PK3-K",37800,7028816,0,7028816,1,-76.999857987,38.892895991,6,"Stuart-Hobson MS","Eastern HS",227,4,16,10,0.0704845814977974,0.0440528634361234,0.0176211453744493,30828.1403508772,185.947513227513,1,"Partial Modernization","Peabody Elementary"
478,"DCPS","704 26th Street NE",512,"HS",146976,66594065,0,66594065,1,-76.971897631,38.901991687,5,"","",323,9,166,42,0.513931888544892,0.130030959752322,0.0278637770897833,130066.533203125,453.094825005443,1,"Full Modernization","Phelps ACE High"
299,"DCPS","4601 Texas Ave  SE",448,"ES",69392,13846933,26191,13873124,1,-76.939934676,38.887239863,7,"Sousa MS","Anacostia HS",428,24,354,54,0.827102803738318,0.126168224299065,0.0560747663551402,30908.3325892857,199.546532741526,1,"Partial Modernization","Plummer Elementary"
300,"DCPS","1350 Upshur St  NW",304,"ES",76848,25490976,2504026,27995002,1,-77.031227422,38.941534009,4,"Col. Hts. EC (6-8)","Cardozo EC (6-12)",446,250,202,57,0.452914798206278,0.12780269058296,0.560538116591928,83851.8947368421,331.706433479076,1,"Full Modernization","Powell Elementary"
NA,"DCPS","4600 Livingston Rd SE",NA,NA,348700,700,0,700,1,NA,NA,8,NA,NA,NA,NA,NA,NA,NA,NA,NA,NA,0.00200745626613135,0,"Stabilized","PR Harris"
316,"DCPS","1650 30th St  SE",450,"ES",72476,21543183,0,21543183,1,-76.964356283,38.870091402,7,"Kramer MS","Anacostia HS",360,3,228,49,0.633333333333333,0.136111111111111,0.00833333333333333,47873.74,297.245750317346,1,"Full Replacement","Randle Highlands Elementary"
302,"DCPS","915 Spring Rd  NW",615,"ES/MS",73600,0,19567000,19567000,1,-77.02643266,38.935810871,4,"","Roosevelt HS",581,245,308,96,0.530120481927711,0.165232358003442,0.421686746987952,0,0,1,"Stabilized","Raymond Education Campus"
NA,"DCPS","1000 1st St NW",NA,NA,143700,1446215,0,1446215,1,NA,NA,2,NA,NA,NA,NA,NA,NA,NA,NA,NA,NA,10.0641266527488,0,"Demolished","RH Terrell"
NA,"DCPS","420 34th St NE",180,"SPED",77707,32133707,-2200000,29933707,1,-76.95752,38.89495,7,NA,NA,NA,NA,NA,NA,NA,NA,NA,178520.594444444,413.52396823967,1,"Full Modernization","River Terrace Special Education Center"
459,"DCPS","4301 13th St NW",1030,"HS",331840,117015598,1887406,118903004,0,-77.027776341,38.943608176,4,"","",476,143,394,141,0.827731092436975,0.296218487394958,0.300420168067227,113607.376699029,352.62656099325,1,"Full Modernization","Roosevelt High"
456,"DCPS","4301 13th St NW",NA,"ADULT",NA,NA,1887406,NA,0,-77.027776341,38.943608176,4,"","",802,11,0,49,0,0.0610972568578554,0.013715710723192,NA,NA,1,NA,"Roosevelt STAY"
305,"DCPS","1730 R St  NW",176,"ES",22400,2604666,0,2604666,1,-77.039662145,38.912390814,2,"Cardozo EC (6-8)","Cardozo EC (9-12)",166,28,10,5,0.0602409638554217,0.0301204819277108,0.168674698795181,14799.2386363636,116.279732142857,1,"Partial Modernization","Ross Elementary"
307,"DCPS","2400 Shannon Pl SE",430,"ES",86800,21059646,0,21059646,1,-76.993604261,38.862851652,8,"Kramer MS","Anacostia HS",408,4,333,51,0.816176470588235,0.125,0.00980392156862745,48975.9209302326,242.622649769585,1,"Full Modernization","Savoy Elementary"
409,"DCPS","2425 N St  NW",437,"ES/MS",95088,1314689,20178000,21492689,1,-77.052320997,38.907469168,2,"","Cardozo EC (9-12)",414,25,109,58,0.263285024154589,0.140096618357488,0.0603864734299517,3008.44164759725,13.8260243143194,1,"Stabilized","School Without Walls @ Francis-Stevens Education Campus"
175,"DCPS","920 F STREET NE",450,"ES",59200,1365487,12028931,13394418,1,-76.993183024,38.897564662,6,NA,"",126,1,70,37,0.555555555555556,0.293650793650794,0.00793650793650794,3034.41555555556,23.0656587837838,1,"Partial Modernization","School-Within-School at Goding"
309,"DCPS","1503 10th St  NW",325,"ES",65000,4298925,0,4298925,1,-77.024882467,38.910618362,6,"Cardozo EC (6-8)","Cardozo EC (9-12)",295,125,148,32,0.501694915254237,0.108474576271186,0.423728813559322,13227.4615384615,66.1373076923077,1,"Partial Modernization","Seaton Elementary"
NA,"DCPS","925 Rhode Island Ave NW",NA,NA,230400,10000,0,10000,1,NA,NA,6,NA,NA,NA,NA,NA,NA,NA,NA,NA,NA,0.0434027777777778,0,"Stabilized","Shaw"
315,"DCPS","401 Mississippi Ave  SE",325,"ES",66192,8505311,0,8505311,1,-77.000194997,38.835980202,8,"Hart MS","Ballou HS",293,2,227,38,0.774744027303754,0.129692832764505,0.0068259385665529,26170.1876923077,128.494546168721,1,"Partial Modernization","Simon Elementary"
322,"DCPS","4400 Brooks St  NE",344,"ES",43000,152322,12679000,12831322,1,-76.938468639,38.893553701,7,"Kelly Miller MS","Woodson HS",275,6,203,30,0.738181818181818,0.109090909090909,0.0218181818181818,442.796511627907,3.54237209302326,1,"Stabilized","Smothers Elementary"
427,"DCPS","3650 Ely Pl SE",636,"MS",136000,34545250,0,34545250,1,-76.953158845,38.883894076,7,NA,"Anacostia HS",284,0,209,82,0.735915492957746,0.288732394366197,0,54316.4308176101,254.009191176471,1,"Full Modernization","Sousa Middle"
319,"DCPS","2701 Naylor Rd  SE",586,"ES",95000,23307939,2165644,25473583,1,-76.968490227,38.859271774,8,"Kramer MS","Anacostia HS",578,0,502,94,0.868512110726644,0.162629757785467,0,39774.6399317406,245.346726315789,1,"Full Modernization","Stanton Elementary"
321,"DCPS","4001 Calvert St  NW",320,"ES",65200,18707417,0,18707417,1,-77.079073796,38.923044313,3,"Hardy MS","Wilson HS",418,72,18,15,0.0430622009569378,0.0358851674641148,0.172248803827751,58460.678125,286.923573619632,1,"Full Modernization","Stoddert Elementary"
428,"DCPS","410 E St  NE",450,"MS",115242,44653267,1190116,45843383,1,-77.00000438,38.89629737,6,"","Eastern HS",423,3,143,83,0.33806146572104,0.196217494089835,0.00709219858156028,99229.4822222222,387.473898405095,1,"Full Modernization","Stuart-Hobson Middle"
324,"DCPS","7010 Piney Branch Rd  NW",450,"ES/MS",118992,26979598,0,26979598,1,-77.022794928,38.975042541,4,"","Coolidge HS",442,113,189,70,0.427601809954751,0.158371040723982,0.255656108597285,59954.6622222222,226.734553583434,1,"Full Modernization","Takoma Education Campus"
325,"DCPS","650 Anacostia Ave NE",474,"ES",87600,7563320,0,7563320,1,-76.952110911,38.901278637,7,"Kelly Miller MS","Woodson HS",408,6,295,44,0.723039215686274,0.107843137254902,0.0147058823529412,15956.3713080169,86.3392694063927,1,"Partial Modernization","Thomas Elementary"
326,"DCPS","1200 L St  NW",320,"ES",74992,25521091,0,25521091,1,-77.028430033,38.903496003,2,"Jefferson Acad. MS","Eastern HS",272,141,124,40,0.455882352941176,0.147058823529412,0.518382352941177,79753.409375,340.317513868146,1,"Full Modernization","Thomson Elementary"
327,"DCPS","800 Ingraham St  NW",542,"ES/MS",69600,4465045,7489000,11954045,1,-77.025071576,38.953968357,4,"","Roosevelt HS",526,239,290,104,0.551330798479088,0.197718631178707,0.454372623574144,8238.09040590406,64.1529454022989,1,"Partial Modernization","Truesdell Education Campus"
328,"DCPS","3101 13th St  NW",500,"ES",66592,3644743,0,3644743,1,-77.029443298,38.929198235,1,"Col. Hts. EC (6-8)","Cardozo EC (9-12)",498,167,302,69,0.606425702811245,0.13855421686747,0.335341365461847,7289.486,54.7324453387794,1,"Partial Modernization","Tubman Elementary"
329,"DCPS","3264 Stanton Rd SE",530,"ES",101093,27580545,0,27580545,1,-76.980309925,38.847634942,8,"Johnson MS","Ballou HS",392,0,333,52,0.849489795918367,0.13265306122449,0,52038.7641509434,272.823489262362,1,"Full Modernization","Turner Elementary"
330,"DCPS","1001 G St  SE",564,"ES",69600,3750929,0,3750929,1,-76.992041663,38.881084023,6,"Jefferson Acad. MS","Eastern HS",522,9,239,74,0.457854406130268,0.14176245210728,0.0172413793103448,6650.58333333333,53.892658045977,1,"Partial Modernization","Tyler Elementary"
NA,"DCPS","1150 5th St SE",336,"ES",49400,10556642,17995000,28551642,1,-76.99914,38.87675,6,"Jefferson Acad. MS","Eastern HS",NA,NA,NA,NA,NA,NA,NA,31418.5773809524,213.697206477733,1,"Full Modernization","Van Ness Elementary"
332,"DCPS","1125 New Jersey Ave NW",700,"ES/MS",95000,40442253,0,40442253,1,-77.01391586,38.904191757,6,"","Dunbar HS",465,8,348,124,0.748387096774194,0.266666666666667,0.0172043010752688,57774.6471428571,425.707926315789,1,"Full Replacement","Walker-Jones Education Campus"
333,"DCPS","420 12th St  SE",587,"ES",69296,2675972,30313978,32989950,1,-76.989996769,38.883466674,6,"Stuart-Hobson MS","Eastern HS",500,4,98,45,0.196,0.09,0.008,4558.72572402044,38.6165435234357,1,"Full Modernization","Watkins Elementary"
336,"DCPS","1338 Farragut St  NW",278,"ES/MS",69642,0,35095000,35095000,1,-77.032253056,38.95136708,4,"","Roosevelt HS",267,27,112,44,0.419475655430712,0.164794007490637,0.101123595505618,0,0,1,"Stabilized","West Education Campus"
338,"DCPS","6201 5th St  NW",520,"ES/MS",71092,5208611,0,5208611,1,-77.019238602,38.965856939,4,"","Coolidge HS",350,38,214,74,0.611428571428571,0.211428571428571,0.108571428571429,10016.5596153846,73.265782366511,1,"Partial Modernization","Whittier Education Campus"
463,"DCPS","3950 Chesapeake St NW",1700,"HS",376448,114246156,0,114246156,1,-77.077775201,38.950155808,3,"","",1788,106,550,263,0.307606263982103,0.147091722595078,0.0592841163310962,67203.6211764706,303.484560948657,1,"Full Modernization","Wilson High"
464,"DCPS","540 55th St. NE",1000,"HS",253406,107742134,0,107742134,1,-76.922322143,38.896782823,7,"","",639,6,501,193,0.784037558685446,0.302034428794992,0.00938967136150235,107742.134,425.175939006969,1,"Full Replacement","Woodson, H.D. High"
NA,"DCPS",NA,NA,NA,193800,4532419,0,4532419,1,NA,NA,8,NA,NA,NA,NA,NA,NA,NA,NA,NA,NA,23.3870949432405,0,"Partial Modernization","Ferebee Hope"
NA,"DCPS","1351 Alabama Ave SE",NA,NA,110800,NA,0,NA,1,NA,NA,8,NA,NA,NA,NA,NA,NA,NA,NA,NA,NA,NA,0,"Stabilized","Malcolm X"
NA,"DCPS","3100 Fort Lincoln Drive SE",NA,NA,103800,0,0,0,1,NA,NA,5,NA,NA,NA,NA,NA,NA,NA,NA,NA,NA,0,0,"Stabilized","Marshall"
NA,"DCPS",NA,NA,NA,112000,1706121,0,1706121,1,NA,NA,8,NA,NA,NA,NA,NA,NA,NA,NA,NA,NA,15.2332232142857,0,"Stabilized","Mcterrell"
NA,"DCPS",NA,NA,NA,73700,6934511,0,6934511,1,NA,NA,6,NA,NA,NA,NA,NA,NA,NA,NA,NA,NA,94.0910583446404,0,"Stabilized","Montgomery/Kipp"
NA,"DCPS","4800 Meade St NE",500,"HS",156000,0,44597000,44597000,1,NA,NA,7,NA,NA,NA,NA,NA,NA,NA,NA,NA,0,0,0,"Full Modernization","Ron Brown"
NA,"DCPS","5200 2nd St NW",NA,NA,84400,100000,0,100000,1,NA,NA,4,NA,NA,NA,NA,NA,NA,NA,NA,NA,NA,1.18483412322275,0,"Stabilized","Rudolph"
312,"DCPS","4300 13th Street NW
",120,"SPED",80500,1332074.86539984,0,1332074.86539984,0,NA,NA,4,NA,"",60,7,31,3,0.516666666666667,0.05,0.116666666666667,11100.623878332,16.5475138558986,1,"Stabilized","Sharpe Health"
313,"DCPS","7800 14th St  NW",400,"ES",79696,20462934,1274389,21737323,1,-77.033995228,38.984602949,4,"Hardy MS","Wilson HS",318,6,59,39,0.185534591194969,0.122641509433962,0.0188679245283019,51157.335,256.762372013652,1,"Full Modernization","Shepherd Elementary"
NA,"DCPS",NA,NA,NA,144900,500000,0,500000,1,NA,NA,8,NA,NA,NA,NA,NA,NA,NA,NA,NA,NA,3.45065562456867,0,"Stabilized","Wilkinson"
233,"PCS","
421 Alabama Avenue, SE",186,"ADULT",12000,786432,4798464,5584896,0,-76.9998836,38.842743,8,NA,NA,256,0,0,0,0,0,0,4228.12903225806,65.536,1,"Facility Allowance","Academy of Hope Adult "
233,"PCS","601 Edgewood Street, NE",186,"ADULT",9375,786432,4798464,5584896,0,-76.9971713,38.9237975,5,NA,NA,256,0,0,0,0,0,0,4228.12903225806,83.88608,1,"Facility Allowance","Academy of Hope Adult "
217,"PCS","1500 Mississippi Avenue, SE",350,"ES",23302,3963509,5004648,8968157,1,-76.9836028,38.8416964,8,NA,NA,267,1,132,23,0.49438202247191,0.0861423220973783,0.00374531835205993,11324.3114285714,170.093082138872,1,"Facility Allowance","Achievement Preparatory-Elementary"
1100,"PCS","908 Wahler Place, SE",450,"MS",33177,2316432,7141464,9457896,1,-76.9924085,38.834427,8,NA,NA,381,0,192,51,0.503937007874016,0.133858267716535,0,5147.62666666667,69.8204177592911,1,"Facility Allowance","Achievement Preparatory-Middle School"
140,"PCS","2750 14th Street, NW ",176,"PK3-K",12204,3156647,3055272,6211919,1,-77.0326704,38.9252369,1,NA,NA,163,37,58,10,0.355828220858896,0.0613496932515337,0.226993865030675,17935.4943181818,258.656751884628,1,"Facility Allowance","AppleTree Early Learning Center Columbia Heights"
3073,"PCS","138 12th Street, NE",63,"PK3-K",8975,1182840,1124640,2307480,1,-76.9905578,38.8914903,6,NA,NA,60,2,5,5,0.0833333333333333,0.0833333333333333,0.0333333333333333,18775.2380952381,131.792757660167,1,"Facility Allowance","AppleTree Early Learning Center Lincoln Park"
1137,"PCS","320 21st Street, NE",176,"PK3-K",15866,2327592,3017784,5345376,1,-76.9750541,38.8940003,7,NA,NA,161,3,80,4,0.496894409937888,0.0248447204968944,0.0186335403726708,13224.9545454545,146.703138787344,1,"Facility Allowance","AppleTree Early Learning Center Oklahoma"
141,"PCS","801 7th Street, SW",110,"PK3-K",6162,736320,1611984,2348304,1,-77.0229317,38.8798501,6,NA,NA,86,4,41,2,0.476744186046512,0.0232558139534884,0.0465116279069767,6693.81818181818,119.493670886076,1,"Facility Allowance","AppleTree Early Learning Center Southwest"
3072,"PCS","2011 Savannah Terrace, SE",88,"PK3-K",7484,1560816,3336432,4897248,0,-76.972974,38.8494641,8,NA,NA,178,1,129,4,0.724719101123595,0.0224719101123595,0.00561797752808989,17736.5454545455,208.553714591128,1,"Facility Allowance","AppleTree Early Learning Southeast"
3072,"PCS","2017 Savannah Terrace, SE",88,"PK3-K",9677,1560816,3336432,4897248,0,-76.9746704,38.8485617,8,NA,NA,178,1,129,4,0.724719101123595,0.0224719101123595,0.00561797752808989,17736.5454545455,161.291309290069,1,"Facility Allowance","AppleTree Early Learning Southeast"
3068,"PCS","410 8th Street, NW",620,"MS/HS",44179,4551672,10327944,14879616,1,-77.0233079,38.8953055,6,NA,NA,551,0,48,23,0.0871143375680581,0.0417422867513612,0,7341.4064516129,103.027954458,1,"Facility Allowance","Basis DC "
142,"PCS","1244 Taylor Street. NW",140,"ES",10776,3405436,5098368,8503804,0,-77.0283582,38.9407171,4,NA,NA,272,102,93,77,0.341911764705882,0.283088235294118,0.375,24324.5428571429,316.020415738679,1,"Facility Allowance","Bridges "
142,"PCS","1250 Taylor Street, NW",142,"ES",3900,3405436,5098368,8503804,0,-77.0285894,38.9405054,4,NA,NA,272,102,93,77,0.341911764705882,0.283088235294118,0.375,23981.9436619718,873.188717948718,1,"Facility Allowance","Bridges "
142,"PCS","4300 13th Street NW
",254,"ES",6000,3405436,5098368,8503804,0,-77.03121,38.94344,4,NA,NA,272,102,93,77,0.341911764705882,0.283088235294118,0.375,13407.2283464567,567.572666666667,1,"Facility Allowance","Bridges "
126,"PCS","1755 Newton Street, NW",100,"ADULT",NA,8206459,9222048,17428507,0,-77.0405163,38.9347901,1,NA,NA,492,50,20,5,0.040650406504065,0.0101626016260163,0.101626016260163,82064.59,NA,1,"Facility Allowance","Briya Public Charter School"
126,"PCS","2333 Ontario Road, NW (Main Office)",180,"ADULT",NA,8206459,9222048,17428507,0,-77.0368707,38.9071923,2,NA,NA,492,50,20,5,0.040650406504065,0.0101626016260163,0.101626016260163,45591.4388888889,NA,1,"Facility Allowance","Briya Public Charter School"
126,"PCS","3912 Georgia Avenue, NW",206,"ADULT",26940,8206459,9222048,17428507,0,-77.0250314,38.9391892,4,NA,NA,492,50,20,5,0.040650406504065,0.0101626016260163,0.101626016260163,39837.1796116505,304.619858945806,1,"Facility Allowance","Briya Public Charter School"
1207,"PCS","102 Peabody Street, NW",1000,"HS",57033,5546488,6166776,11713264,1,-77.0113808,38.9626905,4,NA,NA,329,50,148,60,0.449848024316109,0.182370820668693,0.151975683890578,5546.488,97.2505040941209,1,"Facility Allowance","Capital City High School "
184,"PCS","100 Peabody Street, NW",1000,"ES",57033,5829980,6035568,11865548,1,-77.0126091,38.9623344,4,NA,NA,322,95,72,15,0.22360248447205,0.046583850931677,0.295031055900621,5829.98,102.221170199709,1,"Facility Allowance","Capital City Lower "
182,"PCS","101 Peabody Street, NW",1000,"MS",57033,3252992,5998080,9251072,1,-77.0110697,38.9627222,4,NA,NA,320,38,111,56,0.346875,0.175,0.11875,3252.992,57.037013658759,1,"Facility Allowance","Capital City Middle School"
1119,"PCS","514 V Street, NE",1614,"ADULT",48000,57276227,36981912,94258139,0,-76.9986344,38.9183706,5,NA,NA,1973,113,0,0,0,0,0.05727318803852,35487.1294919455,1193.25472916667,1,"Facility Allowance","Carlos Rosario International Harvard Street Campus"
1119,"PCS","1100 Harvard Street, NW",1614,"ADULT",84000,57276227,36981912,94258139,0,-77.0276499,38.9263689,1,NA,NA,1973,113,0,0,0,0,0.05727318803852,35487.1294919455,681.859845238095,1,"Facility Allowance","Carlos Rosario International Harvard Street Campus"
188,"PCS","701 Howard Road, SE",400,"PK3-K",31000,2065776,6710352,8776128,1,-76.999207,38.8641137,8,NA,NA,358,0,261,9,0.729050279329609,0.0251396648044693,0,5164.44,66.637935483871,1,"Facility Allowance","Cedar Tree Academy "
1103,"PCS","6008 Georgia Avenue, NW",280,"ES/MS",37010,4766091,4648512,9414603,1,-77.02838,38.9631991,4,NA,NA,248,55,80,26,0.32258064516129,0.104838709677419,0.221774193548387,17021.7535714286,128.778465279654,1,"Facility Allowance","Center City Brightwood Campus "
1104,"PCS","1503 East Capitol Street, SE",280,"ES/MS",40037,4699097,4479816,9178913,1,-76.9835459,38.8897865,6,NA,NA,239,0,112,23,0.468619246861925,0.096234309623431,0,16782.4892857143,117.368858805605,1,"Facility Allowance","Center City Capitol Hill Campus "
1105,"PCS","220 Highview Place, SE",280,"ES/MS",27000,4770011,4817208,9587219,1,-77.0045487,38.8415048,8,NA,NA,257,0,172,19,0.669260700389105,0.0739299610894942,0,17035.7535714286,176.667074074074,1,"Facility Allowance","Center City Congress Heights Campus "
1106,"PCS","510 Webster Street, NW",280,"ES/MS",30825,4949770,4910928,9860698,1,-77.0208684,38.9437731,4,NA,NA,262,53,97,19,0.370229007633588,0.0725190839694656,0.202290076335878,17677.75,160.576480129765,1,"Facility Allowance","Center City Petworth Campus "
1107,"PCS","711 N Street, NW",280,"ES/MS",29240,4824166,4517304,9341470,1,-77.0224536,38.9074837,2,NA,NA,241,34,113,29,0.468879668049793,0.120331950207469,0.141078838174274,17229.1642857143,164.985157318741,1,"Facility Allowance","Center City Shaw Campus "
1108,"PCS","1217 W  Virginia Avenue, NE",280,"ES/MS",23313,4651663,4423584,9075247,1,-76.991479,38.905386,5,NA,NA,236,4,132,26,0.559322033898305,0.110169491525424,0.0169491525423729,16613.0821428571,199.530862608845,1,"Facility Allowance","Center City Trinidad Campus "
153,"PCS","709 12th Street, SE",448,"HS",40000,12075294,6710352,18785646,1,-76.9907031,38.8807813,6,NA,NA,358,21,225,70,0.628491620111732,0.195530726256983,0.058659217877095,26953.78125,301.88235,1,"Facility Allowance","Cesar Chavez Capitol Hill "
102,"PCS","3702 Hayes Street,  NE",825,"MS",30870,16948761,5679432,22628193,1,-76.9500149,38.9029444,7,NA,NA,303,8,204,42,0.673267326732673,0.138613861386139,0.0264026402640264,20543.9527272727,549.036637512148,1,"Facility Allowance","Cesar Chavez Parkside Middle "
127,"PCS","770 Kenyon Street, NW",414,"MS",36059,6096304,6204264,12300568,1,-77.025605,38.929581,1,NA,NA,331,94,170,48,0.513595166163142,0.145015105740181,0.283987915407855,14725.3719806763,169.064699520231,1,"Facility Allowance","Cesar Chavez Chavez Prep"
109,"PCS","3701 Hayes Street,  NE",825,"HS",36015,3379632,6672864,10052496,1,-76.9491059,38.9013653,7,NA,NA,356,7,228,40,0.640449438202247,0.112359550561798,0.0196629213483146,4096.52363636364,93.839566847147,1,"Facility Allowance","Cesar Chavez Parkside Upper"
105,"PCS","1300 Allison Street, NW",590,"ES",55000,13482960,11058960,24541920,1,-77.030868,38.944517,4,NA,NA,590,213,261,53,0.442372881355932,0.0898305084745763,0.361016949152542,22852.4745762712,245.144727272727,1,"Facility Allowance","Community Academy Amos I"
158,"PCS","33 Riggs Road, NE",329,"ES",50600,12262794,6166776,18429570,1,-77.006643,38.9549208,5,NA,NA,329,86,193,18,0.586626139817629,0.0547112462006079,0.261398176291793,37272.9300911854,242.347707509881,1,"Facility Allowance","Community Academy Amos II"
106,"PCS","1400 1st Street, NW",523,"ES",100000,14669633,9803112,24472745,1,-77.0132341,38.9090757,5,NA,NA,523,51,272,35,0.520076481835564,0.0669216061185468,0.0975143403441683,28049.0114722753,146.69633,1,"Facility Allowance","Community Academy Butler Global"
108,"PCS","1351 Nicholson Street, NW",123,"ES/MS",20100,3128675,2305512,5434187,1,-77.031579,38.9604804,4,NA,NA,123,0,43,21,0.349593495934959,0.170731707317073,0,25436.3821138211,155.655472636816,1,"Facility Allowance","Community Academy CAPCS Online"
216,"PCS","2405 Martin Luther King Jr. Avenue, SE",155,"ADULT",11000,1339656,5117112,6456768,1,-76.9927263,38.8628141,8,NA,NA,273,0,0,1,0,0.00366300366300366,0,8642.94193548387,121.786909090909,1,"Facility Allowance","Community College Preparatory Academy "
3069,"PCS","3224 16th Street, NW",181,"ES",17976,1282032,3392664,4674696,1,-77.0368058,38.9315518,1,NA,NA,181,10,22,48,0.121546961325967,0.265193370165746,0.0552486187845304,7083.04972375691,71.3190921228304,1,"Facility Allowance","Creative Minds International "
199,"PCS","1420 Columbia Road, NW",NA,"ES",50000,9258495,6822816,16081311,0,-77.0332308,38.927174,1,NA,NA,364,180,130,56,0.357142857142857,0.153846153846154,0.494505494505495,NA,185.1699,1,"Facility Allowance","DC Bilingual "
199,"PCS","3029 14th Street, NW",364,"ES",25000,9258495,6822816,16081311,0,-77.0322034,38.9283049,1,NA,NA,364,180,130,56,0.357142857142857,0.153846153846154,0.494505494505495,25435.4258241758,370.3398,1,"Facility Allowance","DC Bilingual "
1110,"PCS","100 41st Street, NE",754,"ES",80352,6611687,8284848,14896535,1,-76.9449133,38.890775,7,NA,NA,442,8,231,22,0.52262443438914,0.0497737556561086,0.0180995475113122,8768.81564986737,82.2840377339705,1,"Facility Allowance","DC Preparatory Benning Campus "
130,"PCS","707 Edgewood Street, NE",440,"ES",50050,9341738,8097408,17439146,1,-76.9955558,38.9241765,5,NA,NA,432,20,197,28,0.456018518518519,0.0648148148148148,0.0462962962962963,21231.2227272727,186.648111888112,1,"Facility Allowance","DC Preparatory Edgewood Elementary Campus "
196,"PCS"," 701 Edgewood Street, NE",314,"MS",39746,6749878,5510736,12260614,1,-76.9959848,38.9247765,5,NA,NA,294,1,101,46,0.343537414965986,0.156462585034014,0.00340136054421769,21496.4267515924,169.825340914809,1,"Facility Allowance","DC Preparatory Edgewood Middle Campus "
218,"PCS","101 41st Street, NE",754,"MS",26784,697944,2849088,3547032,1,-76.944288,38.891529,7,NA,NA,152,1,67,22,0.440789473684211,0.144736842105263,0.00657894736842105,925.655172413793,26.0582437275986,1,"Facility Allowance","DC Preparatory Benning Middle Campus"
3070,"PCS","5601 East Capitol Street, SE",700,"ES",31000,2641008,7291416,9932424,1,-76.9216306,38.8893227,7,NA,NA,389,0,252,38,0.647814910025707,0.0976863753213368,0,3772.86857142857,85.1938064516129,1,"Facility Allowance","DC Scholars "
234,"PCS","3100 Martin Luther King Jr. Avenue, SE",625,"ES",42528,1904640,11621280,13525920,1,-76.9981457,38.8434987,8,NA,NA,620,1,436,70,0.703225806451613,0.112903225806452,0.00161290322580645,3047.424,44.7855530474041,1,"Facility Allowance","Democracy Prep-Congress Heights"
248,"PCS","3220 16th Street, NW",410,"MS",20217,645120,3936240,4581360,1,-77.0367897,38.9313597,1,NA,NA,210,26,44,40,0.20952380952381,0.19047619047619,0.123809523809524,1573.46341463415,31.9097788989464,1,"Facility Allowance","District of Columbia International School"
146,"PCS","3600 Georgia Avenue, NW",395,"MS",45484,6850144,7066488,13916632,1,-77.0243669,38.9343788,1,NA,NA,377,54,157,77,0.416445623342175,0.204244031830239,0.143236074270557,17342.1367088608,150.60557558702,1,"Facility Allowance","E L Haynes Georgia Avenue"
1138,"PCS","4501 Kansas Avenue, NW",795,"HS",17647,5596776,7909968,13506744,1,-77.022371,38.945657,4,NA,NA,422,66,218,90,0.516587677725118,0.213270142180095,0.156398104265403,7039.96981132076,317.151697172324,1,"Facility Allowance","E.L. Haynes Kansas Avenue- High School"
1206,"PCS","4502 Kansas Avenue, NW",NA,"ES",53800,2661384,6710352,9371736,1,-77.0234943,38.9451898,4,NA,NA,358,108,126,39,0.35195530726257,0.108938547486034,0.301675977653631,NA,49.4681040892193,1,"Facility Allowance","E.L. Haynes Kansas Avenue (Elementary School)"
195,"PCS","3400 Wheeler Road, SE",800,"ES",60000,10094728,14507856,24602584,1,-76.9936441,38.8406263,8,NA,NA,774,2,466,83,0.602067183462532,0.107235142118863,0.00258397932816537,12618.41,168.245466666667,1,"Facility Allowance","Eagle Academy- Eagle Center at McGogney"
1125,"PCS","1017 New Jersey Avenue, SE",160,"ES",8500,2333312,2736624,5069936,1,-77.0051215,38.877859,6,NA,NA,146,0,79,11,0.541095890410959,0.0753424657534247,0,14583.2,274.507294117647,1,"Facility Allowance","Eagle Academy New Jersey Avenue Campus"
138,"PCS","4025 9th Street, SE",162,"ES",15602,4742251,4854696,9596947,0,-76.990566,38.8317414,8,NA,NA,259,0,167,22,0.644787644787645,0.0849420849420849,0,29273.1543209877,303.951480579413,1,"Facility Allowance","Early Childhood Academy "
138,"PCS","4301 9th Street, SE ",118,"ES",4012,4742251,4854696,9596947,0,-76.989567,38.8310119,8,NA,NA,259,0,167,22,0.644787644787645,0.0849420849420849,0,40188.5677966102,1182.0166999003,1,"Facility Allowance","Early Childhood Academy "
159,"PCS","3700 Oakview Terrace, NE",350,"ES",32341,11118784,6560400,17679184,1,-76.9899667,38.934916,5,NA,NA,350,63,62,26,0.177142857142857,0.0742857142857143,0.18,31767.9542857143,343.798398317925,1,"Facility Allowance","Elsie Whitlow Stokes Community Freedom "
1113,"PCS","2501 Martin Luther King Jr. Avenue, SE",867,"ES",67508,8332774,10665336,18998110,1,-76.9952947,38.8600148,8,NA,NA,569,0,366,23,0.64323374340949,0.0404217926186292,0,9611.04267589389,123.433874503763,1,"Facility Allowance","Excel Academy "
1211,"PCS","2502 Martin Luther King Jr. Avenue, SE",NA,"MS",19288,476160,2905320,3381480,1,-76.9939568,38.8608853,8,NA,NA,155,0,100,27,0.645161290322581,0.174193548387097,0,NA,24.6868519286603,1,"Facility Allowance","Excel Academy LEAD"
361,"PCS","725 19th Street, NE",675,"ES",52944,20538240,7103976,27642216,1,-76.976256,38.898544,7,NA,NA,379,6,289,14,0.762532981530343,0.0369393139841689,0.0158311345646438,30427.0222222222,387.92384406165,1,"Facility Allowance","Friendship Blow Pierce Elementary"
362,"PCS","725 19th Street, NE",675,"MS",52944,654336,3992472,4646808,1,-76.976256,38.898544,7,NA,NA,213,1,147,42,0.690140845070423,0.197183098591549,0.00469483568075117,969.386666666667,12.3590208522212,1,"Facility Allowance","Friendship Blow-Pierce Middle"
363,"PCS","1345 Potomac Avenue, SE",760,"ES",80860,23717234,7029000,30746234,1,-76.986715,38.879337,6,NA,NA,375,1,235,18,0.626666666666667,0.048,0.00266666666666667,31206.8868421053,293.312317585951,1,"Facility Allowance","Friendship Chamberlain Elementary"
364,"PCS","1345 Potomac Avenue, SE",760,"MS",80860,1053696,6429192,7482888,1,-76.986715,38.879337,6,NA,NA,343,0,200,59,0.583090379008746,0.17201166180758,0,1386.44210526316,13.0311155082859,1,"Facility Allowance","Friendship Chamberlain Middle"
113,"PCS","645 Milwaukee Place, SE",560,"ES",58539,17344193,10796544,28140737,1,-76.996974,38.847472,8,NA,NA,576,0,412,56,0.715277777777778,0.0972222222222222,0,30971.7732142857,296.284408684808,1,"Facility Allowance","Friendship SouthEast Academy"
1124,"PCS","2705 Martin Luther King Jr. Avenue, SE",670,"MS/HS",59125,6129328,9353256,15482584,0,-76.996307,38.848279,8,NA,NA,499,1,353,90,0.707414829659319,0.180360721442886,0.00200400801603206,9148.25074626866,103.667281183932,1,"Facility Allowance","Friendship Tech Prep"
365,"PCS","2959 Carlton Avenue, NE",665,"ES",37000,18909379,5323296,24232675,1,-76.9662004,38.9294874,5,NA,NA,284,8,127,12,0.447183098591549,0.0422535211267606,0.028169014084507,28435.1563909774,511.064297297297,1,"Facility Allowance","Friendship Woodridge Elementary"
366,"PCS","2960 Carlton Avenue, NE",NA,"MS",37000,516096,3148992,3665088,1,-76.967187,38.930047,5,NA,NA,168,1,75,35,0.446428571428571,0.208333333333333,0.00595238095238095,NA,13.9485405405405,1,"Facility Allowance","Friendship Woodridge Middle"
186,"PCS","4095 Minnesota Avenue, NE",1200,"HS",152000,37822656,16550952,54373608,1,-76.9459338,38.897574,7,NA,NA,883,0,517,165,0.585503963759909,0.186862967157418,0,31518.88,248.833263157895,1,"Facility Allowance","Friendship Woodson Collegiate Academy"
245,"PCS","62 T Street, NE",216,"ES",20000,202752,1237104,1439856,1,-77.0066585,38.916063,5,NA,NA,66,0,40,8,0.606060606060606,0.121212121212121,0,938.666666666667,10.1376,1,"Facility Allowance","Harmony DC-School of Excellence"
131,"PCS","6200 Kansas Avenue, NE",350,"ES",41000,8335030,6710352,15045382,1,-77.0085903,38.9658162,4,NA,NA,358,13,148,22,0.41340782122905,0.0614525139664804,0.0363128491620112,23814.3714285714,203.293414634146,1,"Facility Allowance","Hope Community Lamond Campus"
114,"PCS","2917 8th Street, NE",560,"ES/MS",33571,9509758,9690648,19200406,1,-76.9946003,38.927028,5,NA,NA,517,34,264,43,0.51063829787234,0.0831721470019342,0.0657640232108317,16981.7107142857,283.273003485151,1,"Facility Allowance","Hope Community Tolson Campus"
115,"PCS","405 Howard Place, NW",360,"MS",20968,8215644,5510736,13726380,1,-77.0188757,38.9228511,1,NA,NA,294,11,115,9,0.391156462585034,0.0306122448979592,0.0374149659863946,22821.2333333333,391.818199160626,1,"Facility Allowance","Howard University Middle School of Math and Science "
163,"PCS","1027 45th Street, NE",450,"HS",70000,13450019,4067448,17517467,1,-76.937087,38.904173,7,NA,NA,217,1,165,42,0.76036866359447,0.193548387096774,0.00460829493087558,29888.9311111111,192.143128571429,1,"Facility Allowance","IDEA "
134,"PCS","6130 N Capitol Street, NW",372,"ES/MS",35090,6508377,5566968,12075345,1,-77.0098236,38.9648647,4,NA,NA,297,3,185,32,0.622895622895623,0.107744107744108,0.0101010101010101,17495.6370967742,185.476688515247,1,"Facility Allowance","Ideal Academy North Capitol Street Campus Elementary"
200,"PCS","4600 Livingston Road, SE",319,"ES",31075,941472,3767544,4709016,1,-77.0031886,38.8239325,8,NA,NA,201,0,148,22,0.736318407960199,0.109452736318408,0,2951.32288401254,30.2967658889783,1,"Facility Allowance","Ingenuity Prep "
3064,"PCS","200 Douglas Street, NE",516,"ES/MS",40800,2824824,5941848,8766672,1,-77.0025452,38.9236743,5,NA,NA,317,14,35,34,0.110410094637224,0.107255520504732,0.0441640378548896,5474.46511627907,69.2358823529412,1,"Facility Allowance","Inspired Teaching Demonstration "
116,"PCS","2600 Douglass Place, SE",1300,"MS",144000,8354731,6016824,14371555,1,-76.9912057,38.8569692,8,NA,NA,321,1,189,74,0.588785046728972,0.230529595015576,0.00311526479750779,6426.71615384615,58.0189652777778,1,"Facility Allowance","KIPP DC AIM Academy "
236,"PCS","5300 Blaine Street, NE",600,"PK3-K",26950,651264,3973728,4624992,1,-76.9258818,38.8917411,7,NA,NA,212,1,129,14,0.608490566037736,0.0660377358490566,0.00471698113207547,1085.44,24.1656400742115,1,"Facility Allowance","KIPP DC Arts & Technology Academy "
1123,"PCS","1401 Brentwood Parkway, NE",900,"HS",187423,5814288,8509776,14324064,1,-76.9944198,38.909317,5,NA,NA,454,0,232,86,0.511013215859031,0.18942731277533,0,6460.32,31.0222758146012,1,"Facility Allowance","KIPP DC College Prep "
209,"PCS","1375 Mt Olivet Road, NE",1000,"PK3-K",67000,1533672,5641944,7175616,1,-76.9814619,38.907437,5,NA,NA,301,2,159,21,0.528239202657807,0.0697674418604651,0.00664451827242525,1533.672,22.8906268656716,1,"Facility Allowance","KIPP DC Connect Academy"
1122,"PCS","2600 Douglass Place, SE",1300,"PK3-K",50000,4626760,6185520,10812280,1,-76.9912057,38.8569692,8,NA,NA,330,0,203,22,0.615151515151515,0.0666666666666667,0,3559.04615384615,92.5352,1,"Facility Allowance","KIPP DC Discover "
1129,"PCS","421 P Street, NW",1000,"PK3-K",100671,3706464,5848128,9554592,1,-77.018128,38.909942,2,NA,NA,312,3,140,17,0.448717948717949,0.0544871794871795,0.00961538461538462,3706.464,36.8175939446315,1,"Facility Allowance","KIPP DC GROW Academy "
3071,"PCS","2600 Douglass Place, SE",1300,"ES",31000,3161880,7778760,10940640,1,-76.9912057,38.8569692,8,NA,NA,415,0,229,57,0.551807228915663,0.137349397590361,0,2432.21538461538,101.996129032258,1,"Facility Allowance","KIPP DC Heights Academy "
189,"PCS","4801 Benning Road, SE",1000,"MS",84681,11203877,6260496,17464373,1,-76.9343991,38.8826376,7,NA,NA,334,1,161,37,0.482035928143713,0.110778443113772,0.0029940119760479,11203.877,132.306857500502,1,"Facility Allowance","KIPP DC KEY Academy "
190,"PCS","421 P Street, NW",1000,"ES",84681,1893744,5660688,7554432,1,-77.018128,38.909942,2,NA,NA,302,4,127,27,0.420529801324503,0.0894039735099338,0.0132450331125828,1893.744,22.3632692103305,1,"Facility Allowance","KIPP DC LEAD Academy"
132,"PCS","4801 Benning Road, SE",1000,"PK3-K",41000,6204843,5698176,11903019,1,-76.9343991,38.8826376,7,NA,NA,304,0,177,19,0.582236842105263,0.0625,0,6204.843,151.337634146341,1,"Facility Allowance","KIPP DC LEAP Academy "
242,"PCS","1375 Mt Olivet Road, NE",1000,"MS",40425,387072,2361744,2748816,1,-76.9814619,38.907437,5,NA,NA,126,1,70,22,0.555555555555556,0.174603174603175,0.00793650793650794,387.072,9.57506493506494,1,"Facility Allowance","KIPP DC Northeast Academy "
1121,"PCS","4801 Benning Road, SE",1000,"ES",50000,5553600,7497600,13051200,1,-76.9343991,38.8826376,7,NA,NA,400,3,219,55,0.5475,0.1375,0.0075,5553.6,111.072,1,"Facility Allowance","KIPP DC Promise "
237,"PCS","5300 Blaine Street, NE",600,"ES",40425,866304,5285808,6152112,1,-76.9258818,38.8917411,7,NA,NA,282,1,176,43,0.624113475177305,0.152482269503546,0.00354609929078014,1443.84,21.4299072356215,1,"Facility Allowance","KIPP DC Quest Academy "
214,"PCS","1375 Mt Olivet Road, NE",1000,"ES",46835,616344,1911888,2528232,1,-76.9814619,38.907437,5,NA,NA,102,0,60,5,0.588235294117647,0.0490196078431373,0,616.344,13.1599017828547,1,"Facility Allowance","KIPP DC Spring Academy"
121,"PCS","421 P Street, NW",1000,"MS",42016,7645919,6447936,14093855,1,-77.018128,38.909942,2,NA,NA,344,3,138,66,0.401162790697674,0.191860465116279,0.00872093023255814,7645.919,181.97636614623,1,"Facility Allowance","KIPP DC WILL Academy "
193,"PCS","1800 Perry Street, NE",200,"ES",20200,6050898,6410448,12461346,0,-76.9783016,38.9363691,5,NA,NA,342,129,40,38,0.116959064327485,0.111111111111111,0.37719298245614,30254.49,299.549405940594,1,"Facility Allowance","Latin American Montessori Bilingual (LAMB) "
193,"PCS","1375 Missouri Avenue, NW",175,"ES",16468,6050898,6410448,12461346,0,-77.0323824,38.9622483,4,NA,NA,342,129,40,38,0.116959064327485,0.111111111111111,0.37719298245614,34576.56,367.433689579791,1,"Facility Allowance","Latin American Montessori Bilingual (LAMB) "
104,"PCS","3047 15th Street, NW",225,"ALT",15500,2327480,3561360,5888840,1,-77.0357768,38.9285225,1,NA,NA,190,36,0,6,0,0.0315789473684211,0.189473684210526,10344.3555555556,150.16,1,"Facility Allowance","Latin American Youth Center Career Academy"
228,"PCS","301 Douglas Street, NE",135,"ES",13200,227328,1387056,1614384,1,-77.0020346,38.9234284,5,NA,NA,74,0,10,5,0.135135135135135,0.0675675675675676,0,1683.91111111111,17.2218181818182,1,"Facility Allowance","Lee Montessori "
135,"PCS","1404 Jackson Street, NE",500,"ES/MS",56927,6686938,7141464,13828402,1,-76.9863281,38.9295686,5,NA,NA,381,8,237,35,0.622047244094488,0.0918635170603675,0.020997375328084,13373.876,117.465139564706,1,"Facility Allowance","Mary McLeod Bethune Day Academy Slowe Campus"
101,"PCS","5600 E Capitol Street, NE",450,"ALT",78625,6961429,4723488,11684917,1,-76.9199181,38.8902854,7,NA,NA,252,0,0,88,0,0.349206349206349,0,15469.8422222222,88.5396375198728,1,"Facility Allowance","Maya Angelou Evans Campus "
137,"PCS","5600 E Capitol Street, NE",450,"ADULT",47175,1144584,2755368,3899952,1,-76.9199181,38.8902854,7,NA,NA,147,0,1,17,0.00680272108843537,0.115646258503401,0,2543.52,24.2625119236884,1,"Facility Allowance","Maya Angelou Young Adult Learning Center"
165,"PCS","2120 13th Street, NW",718,"ES/MS",61900,20265712,11977416,32243128,1,-77.0299375,38.9185351,1,NA,NA,639,176,294,77,0.460093896713615,0.120500782472613,0.275430359937402,28225.2256267409,327.394378029079,1,"Facility Allowance","Meridian "
3065,"PCS","30 P Street, NW",568,"ES",36148,3140088,7572576,10712664,1,-77.0103408,38.9092812,5,NA,NA,404,84,57,22,0.141089108910891,0.0544554455445545,0.207920792079208,5528.32394366197,86.867544539117,1,"Facility Allowance","Mundo Verde Bilingual "
1120,"PCS","4600 Livingston Road, SE",319,"HS",50000,4199632,5735664,9935296,1,-77.0031886,38.8239325,8,NA,NA,306,0,213,40,0.696078431372549,0.130718954248366,0,13164.9905956113,83.99264,1,"Facility Allowance","National Collegiate Prep "
169,"PCS","1375 E Street, NE",268,"MS/HS",66622,5525896,5023392,10549288,1,-76.986356,38.895719,6,NA,NA,268,0,218,168,0.813432835820896,0.626865671641791,0,20619.0149253731,82.9440124883672,0,"Facility Allowance","Options "
222,"PCS","5800 8th Street, NW",700,"HS",59423,1757400,6091800,7849200,1,-77.0248615,38.9613283,4,NA,NA,325,24,159,42,0.489230769230769,0.129230769230769,0.0738461538461539,2510.57142857143,29.5744072160611,1,"Facility Allowance","Paul Public Charter School- International High School"
170,"PCS","5800 8th Street, NW",700,"MS",68565,21115814,7047744,28163558,1,-77.0248615,38.9613283,4,NA,NA,376,24,160,47,0.425531914893617,0.125,0.0638297872340425,30165.4485714286,307.967826150368,1,"Facility Allowance","Paul Public Charter School- Middle School"
161,"PCS","1800 Perry Street, NE",200,"PK3-12",171000,28592629,11602536,40195165,1,-76.9783016,38.9363691,5,NA,NA,619,10,343,93,0.554119547657512,0.150242326332795,0.0161550888529887,142963.145,167.208356725146,0,"Facility Allowance","Perry Street Prep "
117,"PCS","4401 8th Street, NE",525,"ES/MS",42016,7783669,7966200,15749869,1,-76.9944091,38.9430337,5,NA,NA,425,0,261,50,0.614117647058824,0.117647058823529,0,14826.0361904762,185.254879093679,1,"Facility Allowance","Potomac Preparatory "
3067,"PCS","770 M Street, SE",400,"MS/HS",28000,2883960,5716920,8600880,1,-76.995574,38.877003,6,NA,NA,305,1,225,58,0.737704918032787,0.19016393442623,0.00327868852459016,7209.9,102.998571428571,1,"Facility Allowance","Richard Wright for Journalism and Media Arts"
173,"PCS","15 Kennedy Street, NW",64,"ES",9000,3896368,1780680,5677048,0,-77.010142,38.9567798,4,NA,NA,95,2,39,7,0.410526315789474,0.0736842105263158,0.0210526315789474,60880.75,432.929777777778,1,"Facility Allowance","Roots "
173,"PCS","6222 North Capitol Street, NW",56,"ES",1374,3896368,1780680,5677048,0,-77.0094126,38.9661824,4,NA,NA,95,2,39,7,0.410526315789474,0.0736842105263158,0.0210526315789474,69578,2835.7845705968,1,"Facility Allowance","Roots "
174,"PCS","4300 C Street, SE",421,"MS/HS",48128,31414511,16924320,48338831,1,-76.9464327,38.8869027,7,NA,NA,336,0,172,57,0.511904761904762,0.169642857142857,0,74618.7909738717,652.728370179521,1,"Facility Allowance","School for Educational Evolution and Development (SEED) "
197,"PCS","6015 Chillum Place, NE",310,"ES",15680,483192,1611984,2095176,1,-77.0074503,38.9639099,4,NA,NA,86,8,24,8,0.27906976744186,0.0930232558139535,0.0930232558139535,1558.68387096774,30.8158163265306,1,"Facility Allowance","Sela "
3066,"PCS","6017 Chillum Place, NE",182,"PK3-K",13580,947496,2211792,3159288,1,-77.007573,38.9640197,4,NA,NA,118,12,20,1,0.169491525423729,0.00847457627118644,0.101694915254237,5206.02197802198,69.7714285714286,1,"Facility Allowance","Shining Stars Montessori "
187,"PCS","3301 Wheeler Road, SE",850,"MS",112000,1217280,4498560,5715840,1,-76.9939903,38.842272,8,NA,NA,240,0,160,44,0.666666666666667,0.183333333333333,0,1432.09411764706,10.8685714285714,1,"Facility Allowance","Somerset "
1047,"PCS","1901 Independence Avenue, SE",525,"SPED",99540,6315254,4723488,11038742,1,-76.9764947,38.8868079,6,NA,NA,252,20,111,251,0.44047619047619,0.996031746031746,0.0793650793650794,12029.0552380952,63.444384167169,1,"Facility Allowance","St. Coletta Special Education "
168,"PCS","3047 15th Street, NW",375,"ALT",31352,4301036,6804072,11105108,1,-77.0357768,38.9285225,1,NA,NA,363,203,0,13,0,0.0358126721763085,0.559228650137741,11469.4293333333,137.185378923195,1,"Facility Allowance","The Next Step "
191,"PCS","2427 Martin Luther King Jr. Avenue, SE",420,"HS",63625,12321572,7403880,19725452,1,-76.9937918,38.8623418,8,NA,NA,395,0,216,50,0.546835443037975,0.126582278481013,0,29337.0761904762,193.659284872299,1,"Facility Allowance","Thurgood Marshall Academy "
183,"PCS","2315 18th Place, NE",286,"ES/MS",28076,10057948,5360784,15418732,1,-76.9777082,38.9207757,5,NA,NA,286,2,185,25,0.646853146853147,0.0874125874125874,0.00699300699300699,35167.6503496504,358.240062686992,0,"Facility Allowance","Tree of Life Community "
198,"PCS","1227 4th Street, NE ",380,"ES/MS",33076,11461694,9709392,21171086,0,-77.0001838,38.9067354,6,NA,NA,518,20,126,107,0.243243243243243,0.206563706563707,0.0386100386100386,30162.3526315789,346.526000725602,1,"Facility Allowance","Two Rivers "
198,"PCS","1234 4th Street, NE",144,"ES/MS",17929,9249094,9709392,18958486,0,-77.000978,38.90642,6,NA,NA,518,20,126,107,0.243243243243243,0.206563706563707,0.0386100386100386,64229.8194444444,515.87338948073,1,"Facility Allowance","Two Rivers "
1118,"PCS","5201 2nd Street, NW",685,"HS",29280,4643648,6860304,11503952,1,-77.013189,38.953489,4,NA,NA,304,6,70,31,0.230263157894737,0.101973684210526,0.0197368421052632,6779.04817518248,158.594535519126,1,"Facility Allowance","Washington Latin High"
125,"PCS","5200 2nd Street, NW",685,"MS",35040,6687433,5698176,12385609,1,-77.0140391,38.9538896,4,NA,NA,366,3,16,29,0.0437158469945355,0.0792349726775956,0.00819672131147541,9762.67591240876,190.851398401826,1,"Facility Allowance","Washington Latin Middle"
178,"PCS","1920 Bladensburg Road, NE",350,"HS",49116,13661934,6279240,19941174,1,-76.9737654,38.9164261,5,NA,NA,335,3,222,72,0.662686567164179,0.214925373134328,0.00895522388059702,39034.0971428571,278.156486684583,1,"Facility Allowance","Washington Math Science Tech "
1117,"PCS","220 Taylor Street, NE",595,"ES",41118,7254586,9896832,17151418,1,-77.0036779,38.941395,5,NA,NA,528,31,22,30,0.0416666666666667,0.0568181818181818,0.0587121212121212,12192.581512605,176.433338197383,1,"Facility Allowance","Washington Yu Ying "
210,"PCS","705 Edgewood Street, NE",624,"ES/MS",46835,12280675,8228616,20509291,1,-76.9957981,38.9236618,5,NA,NA,439,13,223,35,0.507972665148064,0.0797266514806378,0.0296127562642369,19680.5689102564,262.211487135689,1,"Facility Allowance","William E. Doar Jr "
128,"PCS","3014 14th St NW",100,"ALT",11709,2831123,2099328,4930451,1,-77.0327382,38.9277886,1,NA,NA,112,7,0,10,0,0.0892857142857143,0.0625,28311.23,241.790332223076,1,"Facility Allowance","Youthbuild "
NA,"PCS","209 Upshur Street NW",NA,NA,NA,1013952,0,1013952,NA,NA,NA,4,NA,NA,NA,NA,NA,NA,NA,NA,NA,NA,NA,0,NA,"Academia Bilingue"
NA,"PCS","1600 Taylor Street NE",NA,NA,NA,1226332,0,1226332,NA,NA,NA,5,NA,NA,NA,NA,NA,NA,NA,NA,NA,NA,NA,0,NA,"ALTA Associates for Learning Through the Arts"
NA,"PCS","401 I Street SW",NA,NA,NA,699648,0,699648,NA,NA,NA,6,NA,NA,NA,NA,NA,NA,NA,NA,NA,NA,NA,0,NA,"AppleTree Amidon"
NA,"PCS","45 P St NW",NA,NA,NA,156702,0,156702,NA,NA,NA,5,NA,NA,NA,NA,NA,NA,NA,NA,NA,NA,NA,0,NA,"ARE Academy for Renewal in Education"
NA,"PCS","5300 Blaine Street NE",NA,NA,NA,21620200,0,21620200,NA,NA,NA,7,NA,NA,NA,NA,NA,NA,NA,NA,NA,NA,NA,0,NA,"Arts and Technology Academy"
NA,"PCS","100 Peabody Street NW",NA,NA,NA,2169195,0,2169195,NA,NA,NA,4,NA,NA,NA,NA,NA,NA,NA,NA,NA,NA,NA,0,NA,"Barbara Jordan"
NA,"PCS","2019 Rhode Island Ave NE",NA,NA,NA,301573,0,301573,NA,NA,NA,5,NA,NA,NA,NA,NA,NA,NA,NA,NA,NA,NA,0,NA,"Center City Brentwood"
NA,"PCS","1301 V Street NW",NA,NA,NA,2230312,0,2230312,NA,NA,NA,1,NA,NA,NA,NA,NA,NA,NA,NA,NA,NA,NA,0,NA,"Children's Studio School"
NA,"PCS","3265 S Street NW",NA,NA,NA,920095,0,920095,NA,NA,NA,2,NA,NA,NA,NA,NA,NA,NA,NA,NA,NA,NA,0,NA,"City Collegiate"
NA,"PCS","62 T Street NE",NA,NA,NA,618836,0,618836,NA,NA,NA,5,NA,NA,NA,NA,NA,NA,NA,NA,NA,NA,NA,0,NA,"City Lights"
NA,"PCS","4025 9th Street, SE",NA,NA,NA,405000,0,405000,NA,NA,NA,8,NA,NA,NA,NA,NA,NA,NA,NA,NA,NA,NA,0,NA,"Early Childhood Academy Johenning"
NA,"PCS","4301 9th Street SE",NA,NA,NA,339000,0,339000,NA,NA,NA,8,NA,NA,NA,NA,NA,NA,NA,NA,NA,NA,NA,0,NA,"Early Childhood Academy Walter Washington"
NA,"PCS","701 Howard Road SE",NA,NA,NA,7963270,0,7963270,NA,NA,NA,8,NA,NA,NA,NA,NA,NA,NA,NA,NA,NA,NA,0,NA,"Howard Road Academy"
NA,"PCS","4625 G St SE",NA,NA,NA,398722,0,398722,NA,NA,NA,7,NA,NA,NA,NA,NA,NA,NA,NA,NA,NA,NA,0,NA,"Howard Road Academy G St."
NA,"PCS","3000 Pennsylvania Ave SE",NA,NA,NA,2310330,0,2310330,NA,NA,NA,7,NA,NA,NA,NA,NA,NA,NA,NA,NA,NA,NA,0,NA,"Howard Road Academy Penn. Ave."
NA,"PCS","2405 ML King Ave SE",NA,NA,NA,1468600,0,1468600,NA,NA,NA,8,NA,NA,NA,NA,NA,NA,NA,NA,NA,NA,NA,0,NA,"Howard Road Adademy MLK Ave. Middle"
NA,"PCS","100 Peabody Street NW",NA,NA,NA,1512212,0,1512212,NA,NA,NA,4,NA,NA,NA,NA,NA,NA,NA,NA,NA,NA,NA,0,NA,"Ideal Academy Peabody St."
NA,"PCS","3100 ML King Ave SE",NA,NA,NA,7943598,0,7943598,NA,NA,NA,8,NA,NA,NA,NA,NA,NA,NA,NA,NA,NA,NA,0,NA,"Imagine Southeast"
NA,"PCS","220 Taylor Street NE",NA,NA,NA,393584,0,393584,NA,NA,NA,5,NA,NA,NA,NA,NA,NA,NA,NA,NA,NA,NA,0,NA,"Jo-Arz Academy"
NA,"PCS","100 Peabody Street NW",NA,NA,NA,3537694,0,3537694,NA,NA,NA,4,NA,NA,NA,NA,NA,NA,NA,NA,NA,NA,NA,0,NA,"KAMIT Institute"
NA,"PCS","1600 Taylor Street NE",NA,NA,NA,237000,0,237000,NA,NA,NA,5,NA,NA,NA,NA,NA,NA,NA,NA,NA,NA,NA,0,NA,"LAMB Taylor St."
NA,"PCS","253 42nd Street NE",NA,NA,NA,691425,0,691425,NA,NA,NA,7,NA,NA,NA,NA,NA,NA,NA,NA,NA,NA,NA,0,NA,"Mary McLeod Bethune 42nd St."
NA,"PCS","5413 16th Street NW",NA,NA,NA,843148,0,843148,NA,NA,NA,4,NA,NA,NA,NA,NA,NA,NA,NA,NA,NA,NA,0,NA,"Mary McLeod Bethune Crestwood Campus"
NA,"PCS","1851 9th Street NW",NA,NA,NA,2571219,0,2571219,NA,NA,NA,1,NA,NA,NA,NA,NA,NA,NA,NA,NA,NA,NA,0,NA,"Maya Angelou Shaw Campus"
NA,"PCS","6000 New Hampshire Ave NE",NA,NA,NA,357535,0,357535,NA,NA,NA,4,NA,NA,NA,NA,NA,NA,NA,NA,NA,NA,NA,0,NA,"MEI Futures"
NA,"PCS","1920 Bladensburg Road NE",NA,NA,NA,4109909,0,4109909,NA,NA,NA,5,NA,NA,NA,NA,NA,NA,NA,NA,NA,NA,NA,0,NA,"New School"
NA,"PCS","100 Peabody Street NW",NA,NA,NA,353492,0,353492,NA,NA,NA,4,NA,NA,NA,NA,NA,NA,NA,NA,NA,NA,NA,0,NA,"New Vistas Prep"
NA,"PCS","3845 South Capitol Street SW",NA,NA,NA,2482515,0,2482515,NA,NA,NA,8,NA,NA,NA,NA,NA,NA,NA,NA,NA,NA,NA,0,NA,"Nia Community"
NA,"PCS","702 15th Street NE",NA,NA,NA,756800,0,756800,NA,NA,NA,6,NA,NA,NA,NA,NA,NA,NA,NA,NA,NA,NA,0,NA,"Options Satillite Campus"
NA,"PCS","1027 45th Street NE",NA,NA,NA,743930,0,743930,NA,NA,NA,7,NA,NA,NA,NA,NA,NA,NA,NA,NA,NA,NA,0,NA,"Richard Milburn Academy"
NA,"PCS","1100 16th Street NW",NA,NA,NA,664860,0,664860,NA,NA,NA,2,NA,NA,NA,NA,NA,NA,NA,NA,NA,NA,NA,0,NA,"SAIL 16th St."
NA,"PCS","1705 H Street NW",NA,NA,NA,664790,0,664790,NA,NA,NA,6,NA,NA,NA,NA,NA,NA,NA,NA,NA,NA,NA,0,NA,"SAIL H St."
NA,"PCS","1375 E Street NE",NA,NA,NA,1912721,0,1912721,NA,NA,NA,6,NA,NA,NA,NA,NA,NA,NA,NA,NA,NA,NA,0,NA,"Sasha Bruce"
NA,"PCS","425 Chesapeake St SE",NA,NA,NA,3017000,0,3017000,NA,NA,NA,8,NA,NA,NA,NA,NA,NA,NA,NA,NA,NA,NA,0,NA,"Septima Clark"
NA,"PCS","645 Milwaukee Place SE",NA,NA,NA,3732006,0,3732006,NA,NA,NA,8,NA,NA,NA,NA,NA,NA,NA,NA,NA,NA,NA,0,NA,"SouthEast Academy"
NA,"PCS","401 M ST SW",NA,NA,NA,1143098,0,1143098,NA,NA,NA,6,NA,NA,NA,NA,NA,NA,NA,NA,NA,NA,NA,0,NA,"Tech World"
NA,"PCS","320 21st Street NE",NA,NA,NA,667214,0,667214,NA,NA,NA,7,NA,NA,NA,NA,NA,NA,NA,NA,NA,NA,NA,0,NA,"Thea Bowman"
NA,"PCS","3700 N Capitol Street NW",NA,NA,NA,2080524,0,2080524,NA,NA,NA,5,NA,NA,NA,NA,NA,NA,NA,NA,NA,NA,NA,0,NA,"Tri-Community"
NA,"PCS","770 M Street SE",NA,NA,NA,907163,0,907163,NA,NA,NA,6,NA,NA,NA,NA,NA,NA,NA,NA,NA,NA,NA,0,NA,"Washington Academy (Blue Castle)"
NA,"PCS","3000 Pennsylvania Ave SE",NA,NA,NA,376540,0,376540,NA,NA,NA,7,NA,NA,NA,NA,NA,NA,NA,NA,NA,NA,NA,0,NA,"Washington Academy (Penn. Ave.)"
NA,"PCS","4625 G St SE",NA,NA,NA,730844,0,730844,NA,NA,NA,7,NA,NA,NA,NA,NA,NA,NA,NA,NA,NA,NA,0,NA,"Washington Academy JMUMC"
NA,"PCS","3700 N Capitol Street NW",NA,NA,NA,1910351,0,1910351,NA,NA,NA,5,NA,NA,NA,NA,NA,NA,NA,NA,NA,NA,NA,0,NA,"William E. Doar Jr. Soldiers Home"
NA,"PCS","1375 Missouri Ave NW",NA,NA,NA,454860,0,454860,NA,NA,NA,4,NA,NA,NA,NA,NA,NA,NA,NA,NA,NA,NA,0,NA,"World"
NA,"PCS","6015 Chillum Place NE",NA,NA,NA,3970618,0,3970618,NA,NA,NA,4,NA,NA,NA,NA,NA,NA,NA,NA,NA,NA,NA,0,NA,"Young America Works"
NA,"PCS","101 T Street NE",NA,NA,NA,285671,0,285671,NA,NA,NA,5,NA,NA,NA,NA,NA,NA,NA,NA,NA,NA,NA,0,NA,"Young Technocrats"
NA,"PCS","1851 9th Street NW",NA,NA,NA,5810972,0,5810972,NA,NA,NA,1,NA,NA,NA,NA,NA,NA,NA,NA,NA,NA,NA,0,NA,"Hospitality High"
NA,"PCS","33 Riggs Road NE",NA,NA,NA,2878377,0,2878377,NA,NA,NA,5,NA,NA,NA,NA,NA,NA,NA,NA,NA,NA,NA,0,NA,"Village Learning Center"
296,"DCPS","3560 Warder St  NW",609,"ES",82192,11264300,0,11264300,1,-77.021185666,38.934413761,1,"CHEC (6-8)","Cardozo EC (9-12)",465,290,235,52,0.505376344086022,0.111827956989247,0.623655913978495,18496.3875205255,137.048617870352,1,"Partial Modernization","Bruce-Monroe Elementary @ Park View"
346,"DCPS","1401 Michigan Ave  NE",480,"ES/MS",69392,6533765,0,6533765,1,-76.984995636,38.942012134,5,"Brookland MS","Dunbar HS",225,8,108,29,0.48,0.128888888888889,0.0355555555555556,13612.0104166667,94.1573236107909,1,"Partial Modernization","Bunker Hill Elementary"
360,"DCPS","215 G Street NE",360,"ES/MS",47200,975866,11987136,12963002,1,-77.002562701,38.898529974,6,NA,"Eastern HS",310,3,25,11,0.0806451612903226,0.0354838709677419,0.00967741935483871,2710.73888888889,20.6751271186441,1,"Stabilized","Capitol Hill Montessori"
246,"DCPS","1819 35th St  NW",485,"MS",107200,50758871,0,50758871,1,-77.068613896,38.915508698,2,"","Wilson HS",386,18,96,57,0.248704663212435,0.147668393782383,0.0466321243523316,104657.465979381,473.496930970149,1,"Full Modernization","Hardy Middle"
433,"DCPS","801 7th St SW",570,"MS",108992,0,35993000,35993000,1,-77.02291066,38.879870599,6,"","Eastern HS",277,3,179,64,0.646209386281588,0.231046931407942,0.0108303249097473,0,0,1,"Stabilized","Jefferson Middle"
466,"DCPS","2130 G St NW",520,"HS",74000,40512741,0,40512741,1,-77.048186466,38.898123787,2,"","",590,0,91,4,0.154237288135593,0.00677966101694915,0,77909.1173076923,547.469472972973,1,"Full Modernization","School Without Walls High"
474,"DCPS","300 Bryant Street NW",350,"ALT",49496,0,9900000,9900000,1,-77.015584665,38.920429783,1,"","",244,2,0,45,0,0.184426229508197,0.00819672131147541,0,0,1,"Stabilized","Washington Metropolitan High"
335,"DCPS","1299 Neal St NE",500,"ES/MS",86368,42645563,0,42645563,1,-76.988500771,38.90411741,5,"","Dunbar HS",463,7,364,68,0.786177105831533,0.146868250539957,0.0151187904967603,85291.126,493.765781307892,1,"Full Modernization","Wheatley Education Campus"
308,"DCPS","1500 Mississippi Ave. SE Washington",248,"ES",77700,NA,0,NA,1,-76.983398577,38.841645061,8,"Johnson MS","Ballou HS",244,0,207,34,0.848360655737705,0.139344262295082,0,NA,NA,1,"Stabilized","Malcolm X Elementary at Green"
