"School","Address","School_ID","Agency","Ward","maxOccupancy","Level","totalSQFT","MajorExp9815","ProjectType","YrComplete","TotalAllotandPlan1621","FUTUREProjectType16_21","FutureYrComplete","LifetimeBudget","lifetimeProjType","FeederMS","Total_Enrolled","Limited_English","At_Risk","SPED","AtRiskPer","SPEDPer","ESLPer","SqFtPerEnroll","SpentPerMaxOccupancy","SpentPerSqFt","TotalAllotandPlan1621perGSF","TotalAllotandPlan1621perMaxOcc","ProjectPhase","FeederHS","longitude","latitude","LifetimeBudgetperGSF","LifetimeBudgetperMaxOcc","Open_Now"
"Academia Bilingue (ABC) (Closed 2009)","209 Upshur Street NW",NA,"PCS",4,NA,"CLOSED",NA,1013952,"Facility Allowance",NA,NA,"CLOSED",NA,1013952,"Closed",NA,NA,NA,NA,NA,NA,NA,NA,NA,NA,NA,0,0,NA,NA,-77.0141307,38.9425066,0,0,0
"Academy of Hope NE","601 Edgewood Street, NE",233,"PCS",5,75,"ADULT",9375,344926,"Facility Allowance",NA,2104589,"Facilities Allowance","Ongoing",2449516,"Facilities Allowance",NA,112,0,0,0,0,0,0,83,4228,84,224,28061,NA,NA,-76.9971713,38.9237975,261,32660,1
"Academy of Hope SE","421 Alabama Avenue SE",233,"PCS",8,111,"ADULT",12000,441506,"Facility Allowance",NA,2693875,"Facilities Allowance","Ongoing",3135380,"Facilities Allowance",NA,144,0,0,0,0,0,0,83,4228,66,224,24269,NA,NA,-76.9998836,38.842743,261,28247,1
"Achievement Prep Elementary","1500 Mississippi Avenue, SE",217,"PCS",8,350,"ES",23302,3963509,"Facility Allowance",NA,5004648,"Facilities Allowance","Ongoing",8968157,"Facilities Allowance",NA,267,1,132,23,0.49,0.09,0,87,11324,170,215,14299,NA,NA,-76.9836028,38.8416964,385,25623,1
"Achievement Prep Middle","908 Wahler Place, SE",1100,"PCS",8,450,"MS",33177,2316432,"Facility Allowance",NA,7141464,"Facilities Allowance","Ongoing",9457896,"Facilities Allowance",NA,381,0,192,51,0.5,0.13,0,87,5148,70,215,15870,NA,NA,-76.9924085,38.834427,285,21018,1
"Aiton Elementary","533 48th Pl NE",202,"DCPS",7,442,"ES",57100,8916,"Stabilized",NA,12115000,"Partial Modernization","2019",14515000,"Partial Modernization","Kelly Miller MS",262,1,214,42,0.82,0.16,0,218,20,0,212,27410,"Phase 0","Woodson HS",-76.9333547,38.8970081,254,32839,1
"Amidon-Bowen Elementary","401 I St, SW",203,"DCPS",2,400,"ES",70800,5993305,"Partial Modernization",2012,0,"Systems Renewals","",5993305,"Partial Modernization","Jefferson Acad. MS",345,6,254,90,0.74,0.26,0.02,205,14983,85,0,0,"Phase I","Eastern HS",-77.0291221,38.9015926,85,14983,1
"Anacostia High","1601 16th St SE",450,"DCPS",8,837,"HS",204992,68228069,"Full Modernization",2012,0,"Systems Renewals","",68860993,"Full Modernization","",661,0,586,186,0.89,0.28,0,310,81515,333,0,0,"Full","Anacostia HS",-76.9829543,38.8700237,336,82271,1
"AppleTree Early Learning  Columbia Hts.","2750 14th Street, NW ",140,"PCS",1,176,"ES",12204,3303610,"Facility Allowance",NA,3055272,"Facilities Allowance","Ongoing",6358882,"Facilities Allowance",NA,163,37,58,10,0.36,0.06,0.23,75,18771,271,250,17360,NA,NA,-77.0326704,38.9252369,521,36130,1
"AppleTree Early Learning  Lincoln Park","138 12th Street, NE",3073,"PCS",6,63,"ES",8975,1236937,"Facility Allowance",NA,1124640,"Facilities Allowance","Ongoing",2361577,"Facilities Allowance",NA,60,2,5,5,0.08,0.08,0.03,150,19634,138,125,17851,NA,NA,-76.9905578,38.8914903,263,37485,1
"AppleTree Early Learning  Oklahoma","320 21st Street, NE",1137,"PCS",7,176,"ES",15866,2327592,"Facility Allowance",NA,3017784,"Facilities Allowance","Ongoing",5345376,"Facilities Allowance",NA,161,3,80,4,0.5,0.02,0.02,99,13225,147,190,17147,NA,NA,-76.9750664,38.8939588,337,30371,1
"AppleTree Early Learning  SW","801 7th Street, SW",141,"PCS",6,110,"ES",6162,736320,"Facility Allowance",NA,1611984,"Facilities Allowance","Ongoing",2348304,"Facilities Allowance",NA,86,4,41,2,0.48,0.02,0.05,72,6694,119,262,14654,NA,NA,-77.0229317,38.8798501,381,21348,1
"AppleTree Early Learning Amidon (Closed)","401 I Street SW",NA,"PCS",6,NA,"CLOSED",NA,699648,"Facility Allowance",NA,NA,"CLOSED",NA,699648,"Closed",NA,NA,NA,NA,NA,NA,NA,NA,NA,NA,NA,0,0,NA,NA,-77.0182907,38.8798344,0,0,0
"AppleTree Early Learning SE (Sav Terr 2011)","2011 Savannah Terrace, SE",3072,"PCS",8,88,"ES",7484,2058816,"Facility Allowance",NA,3336432,"Facilities Allowance","Ongoing",5395248,"Facilities Allowance",NA,178,1,129,4,0.72,0.02,0.01,96,23396,275,446,37914,NA,NA,-76.972974,38.8494641,721,61310,1
"AppleTree Early Learning SE (Sav Terr 2017)","2017 Savannah Terrace, SE",3072,"PCS",8,88,"ES",9677,1560816,"Facility Allowance",NA,3336432,"Facilities Allowance","Ongoing",4897248,"Facilities Allowance",NA,178,1,129,4,0.72,0.02,0.01,96,17737,161,345,37914,NA,NA,-76.9746704,38.8485617,506,55651,1
"ARE Academy for Renewal in Ed (Closed 2003)","45 P St NW",NA,"PCS",5,NA,"CLOSED",18300,156702,"Facility Allowance",NA,NA,"CLOSED",NA,156702,"Closed",NA,NA,NA,NA,NA,NA,NA,NA,NA,NA,9,0,0,NA,NA,-77.0105716,38.9098819,9,NA,0
"Arts and Technology Academy  (Closed 2014)","5300 Blaine Street NE",NA,"PCS",7,NA,"CLOSED",67375,21620200,"Facility Allowance",NA,NA,"CLOSED",NA,21620200,"Closed",NA,NA,NA,NA,NA,NA,NA,NA,NA,NA,321,0,0,NA,NA,-76.9258818,38.8917411,321,NA,0
"Assc. for Learning Through Arts (Closed 2010)","1600 Taylor Street NE",NA,"PCS",5,NA,"CLOSED",NA,1226332,"Facility Allowance",NA,NA,"CLOSED",NA,1226332,"Closed",NA,NA,NA,NA,NA,NA,NA,NA,NA,NA,NA,0,0,NA,NA,-76.9823945,38.9410802,0,0,0
"Ballou High/STAY","3401 4th St SE",452,"DCPS",8,1520,"HS",356000,141737725,"Full Replacement",2015,4007,"Systems Renewals","",162976011,"Full Modernization","",1346,0,644,276,0.85,0.37,0,264,93249,398,0,3,"Full","Ballou HS",-77.0014227,38.8393559,458,107221,1
"Bancroft Elementary","1755 Newton St NW",204,"DCPS",1,563,"ES",79792,1446450,"Stabilized",2015,59943000,"Full Modernization","2018",66496000,"Full Modernization","Deal MS",508,279,181,54,0.36,0.11,0.55,157,2569,18,751,106471,"Phase 0","Wilson HS",-77.0405163,38.9347901,833,118110,1
"Banneker High","800 Euclid St NW",402,"DCPS",1,620,"HS",180000,671104,"Stabilized",NA,77074000,"Full Modernization","2021",78745104,"Full Modernization","",449,3,113,0,0.25,0,0.01,401,1082,4,428,124313,"Phase 0","City-Wide",-77.0239586,38.9235819,437,127008,1
"Barbara Jordan (Closed 2009)","100 Peabody Street NW",NA,"PCS",4,NA,"CLOSED",NA,2169195,"Facility Allowance",NA,NA,"CLOSED",NA,2169195,"Closed",NA,NA,NA,NA,NA,NA,NA,NA,NA,NA,NA,0,0,NA,NA,-77.0126091,38.9623344,0,0,0
"Barnard Elementary","430 Decatur St NW",205,"DCPS",4,486,"ES",72496,24386910,"Full Replacement",2003,0,"Systems Renewals","",24386910,"Full Modernization","Truesdell or West EC (6th-8th)",602,193,284,72,0.47,0.12,0.32,120,50179,336,0,0,"Full","Roosevelt HS",-77.018458,38.9479619,336,50179,1
"Basis DC","410 8th Street, NW",3068,"PCS",2,620,"MS/HS",44179,4551672,"Facility Allowance",NA,10327944,"Facilities Allowance","Ongoing",14879616,"Facilities Allowance",NA,551,0,48,23,0.09,0.04,0,80,7341,103,234,16658,NA,NA,-77.0233079,38.8953055,337,23999,1
"Beers Elementary","3600 Alabama Ave SE",206,"DCPS",7,430,"ES",77488,14813933,"Partial Modernization",2013,-24188,"Systems Renewals","",15123196,"Partial Modernization","Sousa MS",438,1,243,79,0.55,0.18,0,177,34451,191,0,-56,"Phase I","Anacostia HS",-76.9556094,38.8646071,195,35170,1
"Booker T Washington (Closed 2014)","1346 Florida Ave NW",NA,"PCS",1,NA,"CLOSED",30425,11508196,"Facility Allowance",NA,NA,"CLOSED",NA,11508196,"Closed",NA,NA,NA,NA,NA,NA,NA,NA,NA,NA,378,0,0,NA,NA,-77.0311625,38.9199388,378,NA,0
"Brent Elementary","301 North Carolina Ave SE",212,"DCPS",6,369,"ES",47500,4475354,"Partial Modernization",2009,0,"Systems Renewals","",4485194,"Partial Modernization","Jefferson Acad. MS",368,5,23,22,0.06,0.06,0.01,129,12128,94,0,0,"Phase I","Eastern HS",-77.0013712,38.8847202,94,12155,1
"Bridges (Combined bldgs)","1244 Taylor Street. NW",142,"PCS",4,536,"ES",20676,3405436,"Facility Allowance",NA,5098368,"Facilities Allowance","Ongoing",8503804,"Facilities Allowance",NA,272,102,93,77,0.34,0.28,0.38,76,24325,316,247,9512,NA,NA,-77.0283582,38.9407171,411,15865,1
"Brightwood Ed Campus","1300 Nicholson St NW",213,"DCPS",4,584,"ES/MS",78000,22265461,"Full Modernization",2005,0,"Systems Renewals","",22269148,"Full Modernization","",639,379,302,78,0.47,0.12,0.59,122,38126,285,0,0,"Full","Coolidge HS",-77.0301586,38.9607113,286,38132,1
"Briya Georgia Ave","3912 Georgia Avenue, NW",126,"PCS",4,206,"ADULT",6053,2735486,"Facility Allowance",NA,3074016,"Facilities Allowance","Ongoing",5809502,"Facilities Allowance",NA,164,50,20,5,0.04,0.01,0.1,55,39837,305,508,14922,NA,NA,-77.0250314,38.9391892,960,28201,1
"Briya Newton St","1755 Newton St NW",126,"PCS",1,100,"ADULT",6053,2735486,"Facility Allowance",NA,3074016,"Facilities Allowance","Ongoing",5809502,"Facilities Allowance",NA,164,50,20,5,0.04,0.01,0.1,55,82065,NA,508,30740,NA,NA,-77.0405163,38.9347901,960,58095,1
"Briya Ontario Rd","2333 Ontario Road, NW (Main Office)",126,"PCS",1,180,"ADULT",6054,2735486,"Facility Allowance",NA,3074016,"Facilities Allowance","Ongoing",5809502,"Facilities Allowance",NA,164,50,20,5,0.04,0.01,0.1,55,45591,NA,508,17078,NA,NA,-77.0398021,38.9209625,960,32275,1
"Brookland Middle","1150 Michigan Avenue, NE",NA,"DCPS",5,540,"MS",110000,58053351,"Full Replacement",2015,-1202174,"Systems Renewals","",62711400,"Full Modernization",NA,NA,NA,NA,NA,NA,NA,NA,NA,107506,528,-11,-2226,"Full","Dunbar HS",-76.9918169,38.9374144,570,116132,1
"Browne Ed Campus","850 26th St NE",404,"DCPS",5,804,"ES/MS",215392,131951,"Stabilized",NA,20636000,"Partial Modernization","2019",23793129,"Partial Modernization","",353,23,241,56,0.68,0.16,0.07,610,164,1,96,25667,"Phase 0","Eastern HS",-76.9708894,38.9026911,110,29593,1
"Bruce Monroe ES (Demolished 2010)","3012 Georgia Ave NW",NA,"DCPS",1,NA,"CLOSED",110700,1499358,"Stabilized",NA,0,"CLOSED","Closed",1499358,"Closed",NA,NA,NA,NA,NA,NA,NA,NA,NA,NA,14,0,0,NA,NA,-77.0237871,38.9285372,14,NA,0
"Bruce-Monroe at Park View ES","3560 Warder St NW",296,"DCPS",1,609,"ES",82192,11264300,"Partial Modernization",2012,0,"Systems Renewals","",17026865,"Partial Modernization","CHEC (6-8)",465,290,235,52,0.51,0.11,0.62,NA,18496,137,0,0,"Phase I","Cardozo HS (9-12)",-77.0208201,38.9339752,207,27959,1
"Bunker Hill Elementary","1401 Michigan Ave NE",346,"DCPS",5,480,"ES/MS",69392,6533765,"Partial Modernization",2012,0,"Systems Renewals","",6544178,"Partial Modernization","Brookland MS",225,8,108,29,0.48,0.13,0.04,NA,13612,94,0,0,"Phase I","Dunbar HS",-76.9848216,38.9420075,94,13634,1
"Burroughs Elementary","1820 Monroe St NE",220,"DCPS",5,450,"ES/MS",69696,8239048,"Partial Modernization",2013,0,"Systems Renewals","",8866114,"Partial Modernization","Brookland MS",297,14,156,53,0.53,0.18,0.05,235,18309,118,0,0,"Phase I","Dunbar HS",-76.9788919,38.933612,127,19702,1
"Burrville Elementary","801 Division Ave NE",221,"DCPS",7,400,"ES",94992,2991980,"Partial Modernization",2010,0,"Systems Renewals","",2996347,"Partial Modernization","Kelly Miller MS",360,2,244,36,0.68,0.1,0.01,264,7480,31,0,0,"Phase I","Woodson HS",-76.923953,38.9004502,32,7491,1
"C.W. Harris Elementary","301 53rd St SE",247,"DCPS",7,438,"ES",56000,0,"Stabilized",NA,12606000,"Partial Modernization","2020",12606000,"Partial Modernization","Kelly Miller MS",291,2,229,40,0.79,0.14,0.01,192,0,0,225,28781,"Phase 0","Woodson HS",-76.9261671,38.883619,225,28781,1
"Capital City Elementary","100 Peabody Street, NW",184,"PCS",4,333,"ES",57033,7704995,"Facility Allowance",NA,6035568,"Facilities Allowance","Ongoing",13740563,"Facilities Allowance",NA,322,95,72,15,0.22,0.05,0.3,177,7705,135,106,18125,NA,NA,-77.0126091,38.9623344,241,41263,1
"Capital City High","102 Peabody Street, NW",1207,"PCS",4,334,"HS",57033,5546488,"Facility Allowance",NA,6166776,"Facilities Allowance","Ongoing",11713264,"Facilities Allowance",NA,329,50,148,60,0.45,0.18,0.15,173,5546,97,108,18463,NA,NA,-77.0126299,38.9626865,205,35070,1
"Capital City Middle","101 Peabody Street, NW",182,"PCS",4,333,"MS",57033,5116360,"Facility Allowance",NA,5998080,"Facilities Allowance","Ongoing",11114440,"Facilities Allowance",NA,320,38,111,56,0.35,0.18,0.12,178,5116,90,105,18012,NA,NA,-77.0110697,38.9627222,195,33377,1
"Capitol Hill Montessori","215 G Street NE",360,"DCPS",6,360,"ES/MS",47200,975866,"Stabilized",NA,11987136,"Partial Modernization","2019",14637256,"Partial Modernization",NA,310,3,25,11,0.08,0.04,0.01,NA,2711,21,254,33298,"Phase 0","Eastern HS",-77.0025711,38.8985014,310,40659,1
"Cardozo Ed Campus 6th-12th","1200 Clifton St. NW",454,"DCPS",1,1070,"MS/HS",397400,131527974,"Full Modernization",2013,0,"Systems Renewals","",132124454,"Full Modernization","",781,266,573,188,0.73,0.24,0.34,509,122923,331,0,0,"Full","Cardozo HS (9-12)",-77.0280509,38.9224184,332,123481,1
"Carlos Rosario  Harvard St","1100 Harvard Street, NW",1119,"PCS",1,1027,"ADULT",84000,36448508,"Facility Allowance",NA,23533944,"Facilities Allowance","Ongoing",59982452,"Facilities Allowance",NA,1256,113,0,0,0,0,0.06,67,35487,682,280,22915,NA,NA,-77.0276499,38.9263689,714,58406,1
"Carlos Rosario  V St.","514 V Street, NE",1119,"PCS",5,587,"ADULT",48000,20827719,"Facility Allowance",NA,13447968,"Facilities Allowance","Ongoing",34275687,"Facilities Allowance",NA,717,113,0,0,0,0,0.06,67,35487,1193,280,22910,NA,NA,-76.9986344,38.9183706,714,58391,1
"Cedar Tree Academy","701 Howard Road, SE",188,"PCS",8,400,"ES",31000,2065776,"Facility Allowance",NA,6710352,"Facilities Allowance","Ongoing",8776128,"Facilities Allowance",NA,358,0,261,9,0.73,0.03,0,87,5164,67,216,16776,NA,NA,-76.999207,38.8641137,283,21940,1
"Center City Brentwood (Closed)","2019 Rhode Island Ave NE",NA,"PCS",5,NA,"CLOSED",NA,301573,"Facility Allowance",NA,NA,"CLOSED",NA,301573,"Closed",NA,NA,NA,NA,NA,NA,NA,NA,NA,NA,NA,0,0,NA,NA,-76.9754974,38.929321,0,0,0
"Center City Brightwood","6008 Georgia Avenue, NW",1103,"PCS",4,280,"ES/MS",37010,4766091,"Facility Allowance",NA,4648512,"Facilities Allowance","Ongoing",9414603,"Facilities Allowance",NA,248,55,80,26,0.32,0.1,0.22,149,17022,129,126,16602,NA,NA,-77.02838,38.9631991,254,33624,1
"Center City Capitol Hill","1503 East Capitol Street, SE",1104,"PCS",6,280,"ES/MS",40037,4699097,"Facility Allowance",NA,4479816,"Facilities Allowance","Ongoing",9178913,"Facilities Allowance",NA,239,0,112,23,0.47,0.1,0,168,16782,117,112,15999,NA,NA,-76.9835459,38.8897865,229,32782,1
"Center City Congress Heights","220 Highview Place, SE",1105,"PCS",8,280,"ES/MS",27000,4770011,"Facility Allowance",NA,4817208,"Facilities Allowance","Ongoing",9587219,"Facilities Allowance",NA,257,0,172,19,0.67,0.07,0,105,17036,177,178,17204,NA,NA,-77.0045487,38.8415048,355,34240,1
"Center City Petworth","510 Webster Street, NW",1106,"PCS",4,280,"ES/MS",30825,4949770,"Facility Allowance",NA,4910928,"Facilities Allowance","Ongoing",9860698,"Facilities Allowance",NA,262,53,97,19,0.37,0.07,0.2,118,17678,161,159,17539,NA,NA,-77.0208684,38.9437731,320,35217,1
"Center City Shaw","711 N Street, NW",1107,"PCS",6,280,"ES/MS",29240,4824166,"Facility Allowance",NA,4517304,"Facilities Allowance","Ongoing",9341470,"Facilities Allowance",NA,241,34,113,29,0.47,0.12,0.14,121,17229,165,154,16133,NA,NA,-77.0224536,38.9074837,319,33362,1
"Center City Trinidad","1217 W Virginia Avenue, NE",1108,"PCS",5,280,"ES/MS",23313,4651663,"Facility Allowance",NA,4423584,"Facilities Allowance","Ongoing",9075247,"Facilities Allowance",NA,236,4,132,26,0.56,0.11,0.02,99,16613,200,190,15799,NA,NA,-76.991479,38.905386,389,32412,1
"Cesar Chavez Capitol Hill","709 12th Street, SE",153,"PCS",6,448,"HS",40000,13525122,"Facility Allowance",NA,6710352,"Facilities Allowance","Ongoing",20235474,"Facilities Allowance",NA,358,21,225,70,0.63,0.2,0.06,112,30190,338,168,14978,NA,NA,-76.9907031,38.8807813,506,45168,1
"Cesar Chavez Chavez Prep","770 Kenyon Street, NW",127,"PCS",1,414,"MS",36059,6096304,"Facility Allowance",NA,6204264,"Facilities Allowance","Ongoing",12300568,"Facilities Allowance",NA,331,94,170,48,0.51,0.15,0.28,109,14725,169,172,14986,NA,NA,-77.025605,38.929581,341,29712,1
"Cesar Chavez Parkside Middle","3702 Hayes Street, NE",102,"PCS",7,381,"MS",30870,18175850,"Facility Allowance",NA,5679432,"Facilities Allowance","Ongoing",23855282,"Facilities Allowance",NA,303,8,204,42,0.67,0.14,0.03,102,22031,589,184,14907,NA,NA,-76.9500149,38.9029444,773,62612,1
"Cesar Chavez Parkside Upper","3701 Hayes Street, NE",109,"PCS",7,444,"HS",36015,3379632,"Facility Allowance",NA,6672864,"Facilities Allowance","Ongoing",10052496,"Facilities Allowance",NA,356,7,228,40,0.64,0.11,0.02,101,4097,94,185,15029,NA,NA,-76.9491059,38.9013653,279,22641,1
"Children's Studio School (Closed 2010)","1301 V Street NW",NA,"PCS",1,NA,"CLOSED",48900,2230312,"Facility Allowance",NA,NA,"CLOSED",NA,2230312,"Closed",NA,NA,NA,NA,NA,NA,NA,NA,NA,NA,46,0,0,NA,NA,-77.02962,38.9181286,46,NA,0
"CHOICE Academy at Emery","1720 1st St NE",947,"DCPS",5,NA,"ALT",63800,0,"Stabilized",NA,NA,"Systems Renewals","",NA,"Stabilized",NA,5,0,0,0,0,0,0,NA,NA,0,0,0,NA,NA,-77.006549,38.9127078,0,0,1
"City Collegiate (Closed 2010)","3265 S Street NW",NA,"PCS",2,NA,"CLOSED",NA,920095,"Facility Allowance",NA,NA,"CLOSED",NA,920095,"Closed",NA,NA,NA,NA,NA,NA,NA,NA,NA,NA,NA,0,0,NA,NA,-77.0668126,38.9157158,0,0,0
"City Lights (Closed 2009)","62 T Street NE",NA,"PCS",5,NA,"CLOSED",19000,618836,"Facility Allowance",NA,NA,"CLOSED",NA,618836,"Closed",NA,NA,NA,NA,NA,NA,NA,NA,NA,NA,33,0,0,NA,NA,-77.0066585,38.916063,33,NA,0
"Cleveland Elementary","1825 8th St NW",224,"DCPS",1,320,"ES",53000,20270264,"Full Modernization",2004,0,"Systems Renewals","",20270264,"Full Modernization","Cardozo EC (6-8)",308,47,137,36,0.44,0.12,0.15,172,63345,382,0,0,"Full","Cardozo HS (9-12)",-77.0225898,38.9150577,382,63345,1
"Columbia Hts Ed Campus 6th-12th","3101 16th St NW",442,"DCPS",1,1400,"MS/HS",325218,78652173,"Full Replacement",2006,0,"Systems Renewals","",78652173,"Full Modernization","",1384,429,744,153,0.54,0.11,0.31,235,56180,242,0,0,"Full","Cardozo HS (9-12)",-77.035464,38.929437,242,56180,1
"Community Academy 1st St","1400 1st Street, NW",106,"PCS",5,523,"ES",100000,16964506,"Facility Allowance",NA,9803112,"Facilities Allowance","Ongoing",26767618,"Facilities Allowance",NA,523,51,272,35,0.52,0.07,0.1,191,32437,170,98,18744,NA,NA,-77.0132341,38.9090757,268,51181,1
"Community Academy Allison St","1300 Allison Street, NW",105,"PCS",4,590,"ES",55000,16071823,"Facility Allowance",NA,11058960,"Facilities Allowance","Ongoing",27130783,"Facilities Allowance",NA,590,213,261,53,0.44,0.09,0.36,93,27240,292,201,18744,NA,NA,-77.030868,38.944517,493,45984,1
"Community Academy Nicholson St","1351 Nicholson Street, NW",108,"PCS",4,123,"ES/MS",20100,3128675,"Facility Allowance",NA,2305512,"Facilities Allowance","Ongoing",5434187,"Facilities Allowance",NA,123,0,43,21,0.35,0.17,0,163,25436,156,115,18744,NA,NA,-77.031579,38.9604804,270,44180,1
"Community Academy Riggs Rd","33 Riggs Road, NE",158,"PCS",5,329,"ES",50600,13706414,"Facility Allowance",NA,6166776,"Facilities Allowance","Ongoing",19873190,"Facilities Allowance",NA,329,86,193,18,0.59,0.05,0.26,154,41661,271,122,18744,NA,NA,-77.006643,38.9549208,393,60405,1
"Community College Prep Academy","2405 Martin Luther King Jr. Avenue, SE",216,"PCS",8,155,"ADULT",11000,1339656,"Facility Allowance",NA,5117112,"Facilities Allowance","Ongoing",6456768,"Facilities Allowance",NA,273,0,0,1,0,0,0,40,8643,122,465,33014,NA,NA,-76.9927263,38.8628141,587,41657,1
"Coolidge High","6315 5th St NW",455,"DCPS",4,1105,"HS",271300,2537691,"Stabilized",NA,116633000,"Full Modernization","2020",122176717,"Full Modernization","",395,50,301,104,0.76,0.26,0.13,687,2297,9,430,105550,"Phase 0","Coolidge HS",-77.019874,38.9662526,450,110567,1
"Creative Minds International","3224 16th Street, NW",3069,"PCS",1,181,"ES",17976,1282032,"Facility Allowance",NA,3392664,"Facilities Allowance","Ongoing",4674696,"Facilities Allowance",NA,181,10,22,48,0.12,0.27,0.06,99,7083,71,189,18744,NA,NA,-77.0368058,38.9315518,260,25827,1
"DC Bilingual Columbia Rd (Col Hts bldgs)","1420 Columbia Road, NW",199,"PCS",1,364,"ES",50000,9258495,"Facility Allowance",NA,6822816,"Facilities Allowance","Ongoing",16081311,"Facilities Allowance",NA,364,180,130,56,0.36,0.15,0.49,206,25435,185,136,18744,NA,NA,-77.0332308,38.927174,322,44179,1
"DC International School","3220 16th Street, NW",248,"PCS",1,410,"MS",20217,645120,"Facility Allowance",NA,3936240,"Facilities Allowance","Ongoing",4581360,"Facilities Allowance",NA,210,26,44,40,0.21,0.19,0.12,96,1573,32,195,9601,NA,NA,-77.0367897,38.9313597,227,11174,1
"DC Prep Benning Elementary","100 41st Street, NE",1110,"PCS",7,656,"ES",80352,6611687,"Facility Allowance",NA,8284848,"Facilities Allowance","Ongoing",14896535,"Facilities Allowance",NA,442,8,231,22,0.52,0.05,0.02,182,8769,82,103,12629,NA,NA,-76.9449133,38.890775,185,22708,1
"DC Prep Benning Middle","101 41st Street, NE",218,"PCS",7,188,"MS",26784,697944,"Facility Allowance",NA,2849088,"Facilities Allowance","Ongoing",3547032,"Facilities Allowance",NA,152,1,67,22,0.44,0.14,0.01,176,926,26,106,15155,NA,NA,-76.944288,38.891529,132,18867,1
"DC Prep Edgewood Elementary","707 Edgewood Street, NE",130,"PCS",5,440,"ES",50050,10420765,"Facility Allowance",NA,8097408,"Facilities Allowance","Ongoing",18518173,"Facilities Allowance",NA,432,20,197,28,0.46,0.06,0.05,116,23684,208,162,18403,NA,NA,-76.9955558,38.9241765,370,42087,1
"DC Prep Edgewood Middle","701 Edgewood Street, NE",196,"PCS",5,314,"MS",39746,7484216,"Facility Allowance",NA,5510736,"Facilities Allowance","Ongoing",12994952,"Facilities Allowance",NA,294,1,101,46,0.34,0.16,0,135,23835,188,139,17550,NA,NA,-76.9959848,38.9247765,327,41385,1
"DC Scholars","5601 East Capitol Street, SE",3070,"PCS",7,700,"ES",31000,2641008,"Facility Allowance",NA,7291416,"Facilities Allowance","Ongoing",9932424,"Facilities Allowance",NA,389,0,252,38,0.65,0.1,0,80,3773,85,235,10416,NA,NA,-76.9216306,38.8893227,320,14189,1
"Deal Middle","3815 Fort Dr NW",405,"DCPS",3,1370,"MS",223689,73524856,"Full Modernization",2009,0,"Systems Renewals","",74154641,"Full Modernization","",1312,47,99,166,0.08,0.13,0.04,170,53668,329,0,0,"Full","Wilson HS",-77.0744601,38.953494,332,54127,1
"Democracy Prep Congress Heights","3100 Martin Luther King Jr. Avenue, SE",234,"PCS",8,625,"ES",42528,1904640,"Facility Allowance",NA,11621280,"Facilities Allowance","Ongoing",13525920,"Facilities Allowance",NA,620,1,436,70,0.7,0.11,0,69,3047,45,273,18594,NA,NA,-76.9981457,38.8434987,318,21641,1
"Drew Elementary","5600 Eads St NE",231,"DCPS",7,362,"ES",72800,4898637,"Partial Modernization",2010,0,"Systems Renewals","",4938279,"Partial Modernization","Kelly Miller MS",201,0,166,34,0.83,0.17,0,362,13532,67,0,0,"Phase I","Woodson HS",-76.9198214,38.8961276,68,13642,1
"Dunbar High","101 N St. NW",467,"DCPS",5,1100,"HS",260000,122897293,"Full Replacement",2013,-250000,"Systems Renewals","",125144890,"Full Modernization","",653,6,483,198,0.74,0.3,0.01,398,111725,473,-1,-227,"Full","Dunbar HS",-77.013134,38.9078377,481,113768,1
"Eagle Academy at McGogney","3400 Wheeler Road, SE",195,"PCS",8,800,"ES",60000,13087929,"Facility Allowance",NA,14507856,"Facilities Allowance","Ongoing",27595785,"Facilities Allowance",NA,774,2,466,83,0.6,0.11,0,78,16360,218,242,18135,NA,NA,-76.9936441,38.8406263,460,34495,1
"Eagle Academy New Jersey Ave","1017 New Jersey Avenue, SE",1125,"PCS",6,160,"ES",8500,2897921,"Facility Allowance",NA,2736624,"Facilities Allowance","Ongoing",5634545,"Facilities Allowance",NA,146,0,79,11,0.54,0.08,0,58,18112,341,322,17104,NA,NA,-77.0051215,38.877859,663,35216,1
"Early Childhood Academy Johenning","4025 9th Street, SE",138,"PCS",8,162,"ES",15602,5147251,"Facility Allowance",NA,4854696,"Facilities Allowance","Ongoing",10001947,"Facilities Allowance",NA,259,0,167,22,0.64,0.08,0,76,29273,304,311,29967,NA,NA,-76.990566,38.8317414,641,61740,1
"Early Childhood Academy Walter Washington","4301 9th Street, SE ",138,"PCS",8,118,"ES",4012,339000,"Facility Allowance",NA,NA,"Facilities Allowance","Ongoing",NA,"Facilities Allowance",NA,NA,0,167,22,0.64,0.08,0,76,40189,1182,0,0,NA,NA,-76.989567,38.8310119,0,0,1
"Eastern High","1700 East Capitol St NE",457,"DCPS",6,1100,"HS",310721,74502874,"Full Modernization",2010,0,"Systems Renewals","",74503071,"Full Modernization","",1025,3,714,296,0.7,0.29,0,303,67730,240,0,0,"Full","Eastern HS",-76.9795263,38.8903247,240,67730,1
"Eaton Elementary","3301 Lowell St NW",232,"DCPS",3,415,"ES",49096,81414,"Stabilized",NA,15552000,"Full Modernization","2021",15633414,"Full Modernization","Hardy MS",475,43,26,35,0.05,0.07,0.09,191,196,2,317,37475,"Phase 0","Wilson HS",-77.0657958,38.9328813,318,37671,1
"EL Haynes Georgia Ave Middle","3600 Georgia Avenue, NW",146,"PCS",1,395,"MS",45484,10299664,"Facility Allowance",NA,7066488,"Facilities Allowance","Ongoing",17366152,"Facilities Allowance",NA,377,54,157,77,0.42,0.2,0.14,121,26075,226,155,17890,NA,NA,-77.0243669,38.9343788,382,43965,1
"EL Haynes Kansas Ave Elementary","4502 Kansas Avenue, NW",1206,"PCS",4,NA,"ES",53800,2661384,"Facility Allowance",NA,6710352,"Facilities Allowance","Ongoing",9371736,"Facilities Allowance",NA,358,108,126,39,0.35,0.11,0.3,150,NA,49,125,0,NA,NA,-77.0234943,38.9451898,174,NA,1
"EL Haynes Kansas Ave High","4501 Kansas Avenue, NW",1138,"PCS",4,795,"HS",17647,5596776,"Facility Allowance",NA,7909968,"Facilities Allowance","Ongoing",13506744,"Facilities Allowance",NA,422,66,218,90,0.52,0.21,0.16,42,7040,317,448,9950,NA,NA,-77.022371,38.945657,765,16990,1
"Eliot-Hine Middle","1830 Constitution Ave NE",407,"DCPS",6,742,"MS",155072,210957,"Stabilized",NA,40911043,"Full Modernization","2020",42653975,"Full Modernization","",257,2,161,63,0.63,0.25,0.01,603,284,1,264,55136,"Phase 0","Eastern HS",-76.978566,38.892612,275,57485,1
"Ellington School of the Arts High","3500 R St NW",471,"DCPS",2,500,"HS",258072,34081441,"Stabilized",2015,61688778,"Full Modernization","2017",180437856,"Full Modernization","",523,5,175,25,0.33,0.05,0.01,320,68163,132,239,123378,"Full","City-Wide",-77.0704265,38.9131435,699,360876,1
"Elsie Whitlow Stokes","3700 Oakview Terrace, NE",159,"PCS",5,350,"ES",32341,11118784,"Facility Allowance",NA,6560400,"Facilities Allowance","Ongoing",17679184,"Facilities Allowance",NA,350,63,62,26,0.18,0.07,0.18,92,31768,344,203,18744,NA,NA,-76.9899667,38.934916,547,50512,1
"Excel Academy","2501 Martin Luther King Jr. Avenue, SE",1113,"PCS",8,867,"ES",67508,8332774,"Facility Allowance",NA,10665336,"Facilities Allowance","Ongoing",18998110,"Facilities Allowance",NA,569,0,366,23,0.64,0.04,0,119,9611,123,158,12301,NA,NA,-76.9952947,38.8600148,281,21912,1
"Excel Academy LEAD","2502 Martin Luther King Jr. Avenue, SE",1211,"PCS",8,NA,"MS",19288,476160,"Facility Allowance",NA,2905320,"Facilities Allowance","Ongoing",3381480,"Facilities Allowance",NA,155,0,100,27,0.65,0.17,0,124,NA,25,151,0,NA,NA,-76.9939568,38.8608853,175,NA,1
"Ferebee Hope (Closed 2013)","3999 8th St. SE",NA,"DCPS",8,450,"CLOSED",193800,4532419,"Partial Modernization",2009,0,"CLOSED","Closed",4532419,"Closed",NA,NA,NA,NA,NA,NA,NA,NA,NA,NA,23,0,0,NA,NA,NA,NA,23,10072,0
"Francis Stevens Ed Campus","2425 N St NW",409,"DCPS",2,437,"ES/MS",95088,1314689,"Stabilized",NA,20178000,"Partial Modernization","2019",22278000,"Partial Modernization","",414,25,109,58,0.26,0.14,0.06,230,3008,14,212,46174,"Phase 0","Cardozo HS (9-12)",-77.0521452,38.9076351,234,50979,1
"Friendship Blow-Pierce Elementary","725 19th Street, NE",361,"PCS",7,338,"ES",52944,23015084,"Facility Allowance",NA,7103976,"Facilities Allowance","Ongoing",30119060,"Facilities Allowance",NA,379,6,289,14,0.76,0.04,0.02,140,34096,435,134,21018,NA,NA,-76.976256,38.898544,569,89110,1
"Friendship Blow-Pierce Middle","725 19th Street, NE",362,"PCS",7,337,"MS",52944,654336,"Facility Allowance",NA,3992472,"Facilities Allowance","Ongoing",4646808,"Facilities Allowance",NA,213,1,147,42,0.69,0.2,0,NA,969,12,75,11847,NA,NA,-76.976256,38.898544,88,13789,1
"Friendship Chamberlain Elementary","1345 Potomac Avenue, SE",363,"PCS",6,760,"ES/MS",80860,27221633,"Facility Allowance",NA,13458192,"Facilities Allowance","Ongoing",40679825,"Facilities Allowance",NA,718,1,435,77,0.61,0.11,0,113,35818,337,166,17708,NA,NA,-76.986715,38.879337,503,53526,1
"Friendship Southeast Elementary","645 Milwaukee Place, SE",113,"PCS",8,560,"ES",58539,21108472,"Facility Allowance",NA,10796544,"Facilities Allowance","Ongoing",31905016,"Facilities Allowance",NA,576,0,412,56,0.72,0.1,0,102,37694,361,184,19280,NA,NA,-76.996974,38.847472,545,56973,1
"Friendship Tech Prep","2705 Martin Luther King Jr. Avenue, SE",1124,"PCS",8,670,"MS/HS",59125,6129328,"Facility Allowance",NA,9353256,"Facilities Allowance","Ongoing",15482584,"Facilities Allowance",NA,499,1,353,90,0.71,0.18,0,133,9148,104,158,13960,NA,NA,-76.996307,38.848279,262,23108,1
"Friendship Woodridge Elementary","2959 Carlton Avenue, NE",365,"PCS",5,665,"ES",74000,21281474,"Facility Allowance",NA,8472288,"Facilities Allowance","Ongoing",29753762,"Facilities Allowance",NA,452,9,202,47,0.45,0.1,0.02,164,32002,561,114,12740,NA,NA,-76.9662004,38.9294874,402,44742,1
"Friendship Woodson Collegiate High","4095 Minnesota Avenue, NE",186,"PCS",7,1200,"HS",152000,43593244,"Facility Allowance",NA,16550952,"Facilities Allowance","Ongoing",60144196,"Facilities Allowance",NA,883,0,517,165,0.59,0.19,0,172,36328,287,109,13792,NA,NA,-76.9459338,38.897574,396,50120,1
"Garfield Elementary","2435 Alabama Ave SE",238,"DCPS",8,365,"ES",58904,1082203,"Stabilized",NA,12583908,"Partial Modernization","2019",14338493,"Partial Modernization","Johnson MS",284,0,233,35,0.82,0.12,0,207,2965,18,214,34476,"Phase 0","Ballou HS",-76.9702748,38.8517226,243,39284,1
"Garnett Patterson (Swing)","2001 10th St NW",NA,"DCPS",1,400,"MS",82700,5560714,"Stabilized",NA,0,"Systems Renewals","Swing",5560714,"Closed",NA,NA,NA,NA,NA,NA,NA,NA,NA,NA,67,0,0,NA,NA,-77.0251664,38.9176846,67,13902,0
"Garrison Elementary","1200 S St NW",239,"DCPS",2,356,"ES",60200,655646,"Stabilized",NA,20000000,"Partial Modernization","2018",24000000,"Partial Modernization","Cardozo EC (6-8)",244,35,117,40,0.48,0.16,0.14,247,1842,11,332,56180,"Phase 0","Cardozo HS (9-12)",-77.028449,38.9138357,399,67416,1
"H.D. Cooke Elementary","2525 17th St NW",227,"DCPS",1,440,"ES",85696,32500688,"Full Modernization",2009,0,"Systems Renewals","",32500688,"Full Modernization","CHEC (6-8)",400,164,215,42,0.54,0.11,0.41,214,73865,379,0,0,"Full","Cardozo HS (9-12)",-77.0383975,38.9239587,379,73865,1
"Hardy Middle","1819 35th St NW",246,"DCPS",2,485,"MS",107200,50758871,"Full Modernization",2008,0,"Systems Renewals","",50758871,"Full Modernization","",386,18,96,57,0.25,0.15,0.05,NA,104657,473,0,0,"Full","Wilson HS",-77.0686338,38.9153226,473,104657,1
"Harmony DC","62 T Street, NE",245,"PCS",5,216,"ES",20000,202752,"Facility Allowance",NA,1237104,"Facilities Allowance","Ongoing",1439856,"Facilities Allowance",NA,66,0,40,8,0.61,0.12,0,303,939,10,62,5727,NA,NA,-77.0066585,38.916063,72,6666,1
"Hart Middle","601 Mississippi Ave SE",413,"DCPS",8,912,"MS",210700,13075759,"Partial Modernization",2011,0,"Systems Renewals","",13214760,"Partial Modernization",NA,479,0,393,128,0.82,0.27,0,440,14337,62,0,0,"Phase I","Ballou HS",-76.9972081,38.8375662,63,14490,1
"Hearst Elementary","3950 37th St NW",258,"DCPS",3,330,"ES",62309,35678706,"Full Modernization",2015,361277,"Systems Renewals","",43433519,"Full Modernization","Deal MS",291,28,39,25,0.13,0.09,0.1,214,108117,573,6,1095,"Full","Wilson HS",-77.0717568,38.9405368,697,131617,1
"Hendley Elementary","425 Chesapeake St SE",249,"DCPS",8,520,"ES",73200,15937127,"Partial Modernization",2013,0,"Systems Renewals","",16150915,"Partial Modernization","Hart MS",503,0,453,84,0.9,0.17,0,146,30648,218,0,0,"Phase I","Ballou HS",-76.9991386,38.8286428,221,31059,1
"Hope Community Lamond","6200 Kansas Avenue, NE",131,"PCS",4,350,"ES",41000,8800358,"Facility Allowance",NA,6710352,"Facilities Allowance","Ongoing",15510710,"Facilities Allowance",NA,358,13,148,22,0.41,0.06,0.04,115,25144,215,164,19172,NA,NA,-77.0085903,38.9658162,378,44316,1
"Hope Community Tolson","2917 8th Street, NE",114,"PCS",5,560,"ES/MS",33571,10181755,"Facility Allowance",NA,9690648,"Facilities Allowance","Ongoing",19872403,"Facilities Allowance",NA,517,34,264,43,0.51,0.08,0.07,65,18182,303,289,17305,NA,NA,-76.9946003,38.927028,592,35486,1
"Hospitality High (Closed 2014)","1851 9th Street NW",NA,"PCS",1,NA,"CLOSED",29300,5810972,"Facility Allowance",NA,NA,"CLOSED",NA,5810972,"Closed",NA,NA,NA,NA,NA,NA,NA,NA,NA,NA,198,0,0,NA,NA,-77.0236584,38.9153791,198,NA,0
"Houston Elementary","1100 50th Pl NE",251,"DCPS",7,398,"ES",59896,1191032,"Stabilized",NA,15693000,"Partial Modernization","2017",16943000,"Partial Modernization","Kelly Miller MS",279,3,209,40,0.75,0.14,0.01,215,2993,20,262,39430,"Phase 0","Woodson HS",-76.9302932,38.9054178,283,42570,1
"Howard Road Academy (Closed 2013)","701 Howard Road SE",NA,"PCS",8,NA,"CLOSED",31000,10909039,"Facility Allowance",NA,NA,"CLOSED",NA,10909039,"Closed",NA,NA,NA,NA,NA,NA,NA,NA,NA,NA,352,0,0,NA,NA,-76.999207,38.8641137,352,NA,0
"Howard Road Academy G St (Closed 2013)","4625 G St SE",NA,"PCS",7,NA,"CLOSED",NA,3344491,"Facility Allowance",NA,NA,"CLOSED",NA,3344491,"Closed",NA,NA,NA,NA,NA,NA,NA,NA,NA,NA,NA,0,0,NA,NA,-76.9346599,38.880396,0,0,0
"Howard Road Academy MLK Ave (Closed 2013)","2405 ML King Ave SE",NA,"PCS",8,NA,"CLOSED",11000,4414369,"Facility Allowance",NA,NA,"CLOSED",NA,4414369,"Closed",NA,NA,NA,NA,NA,NA,NA,NA,NA,NA,401,0,0,NA,NA,-76.9927263,38.8628141,401,NA,0
"Howard Road Academy Penn Ave (Closed 2013)","3000 Pennsylvania Ave SE",NA,"PCS",7,NA,"CLOSED",NA,5256099,"Facility Allowance",NA,NA,"CLOSED",NA,5256099,"Closed",NA,NA,NA,NA,NA,NA,NA,NA,NA,NA,NA,0,0,NA,NA,-76.9638478,38.8711371,0,0,0
"Howard U Middle School of Math & Science","405 Howard Place, NW",115,"PCS",1,360,"MS",20968,8215644,"Facility Allowance",NA,5510736,"Facilities Allowance","Ongoing",13726380,"Facilities Allowance",NA,294,11,115,9,0.39,0.03,0.04,71,22821,392,263,15308,NA,NA,-77.0188757,38.9228511,655,38129,1
"Hyde-Addison Elementary","3219 O St NW",252,"DCPS",2,330,"ES",37504,19157333,"Partial Modernization",2014,22284976,"Full Modernization","2017",43519223,"Full Modernization","Hardy MS",305,29,24,25,0.08,0.08,0.1,123,58053,511,594,67530,"Phase I","Wilson HS",-77.0648106,38.9081992,1160,131876,1
"IDEA","1027 45th Street, NE",163,"PCS",7,450,"HS",70000,13450019,"Facility Allowance",NA,4067448,"Facilities Allowance","Ongoing",17517467,"Facilities Allowance",NA,217,1,165,42,0.76,0.19,0,323,29889,192,58,9039,NA,NA,-76.937087,38.904173,250,38928,1
"Ideal Academy N Capitol St","6130 N Capitol Street, NW",134,"PCS",4,372,"ES/MS",35090,10624686,"Facility Allowance",NA,5566968,"Facilities Allowance","Ongoing",16191654,"Facilities Allowance",NA,297,3,185,32,0.62,0.11,0.01,118,28561,303,159,14965,NA,NA,-77.0098236,38.9648647,461,43526,1
"Ideal Academy Peabody St (Closed)","100 Peabody Street NW",NA,"PCS",4,NA,"CLOSED",NA,1512212,"Facility Allowance",NA,NA,"CLOSED",NA,1512212,"Closed",NA,NA,NA,NA,NA,NA,NA,NA,NA,NA,NA,0,0,NA,NA,-77.0126091,38.9623344,0,0,0
"Imagine Southeast (Closed 2014)","3100 ML King Ave SE",NA,"PCS",8,NA,"CLOSED",42528,7943598,"Facility Allowance",NA,NA,"CLOSED",NA,7943598,"Closed",NA,NA,NA,NA,NA,NA,NA,NA,NA,NA,187,0,0,NA,NA,-76.9981457,38.8434987,187,NA,0
"Ingenuity Prep","4600 Livingston Road, SE",200,"PCS",8,319,"ES",31075,941472,"Facility Allowance",NA,3767544,"Facilities Allowance","Ongoing",4709016,"Facilities Allowance",NA,201,0,148,22,0.74,0.11,0,155,2951,30,121,11810,NA,NA,-77.0031886,38.8239325,152,14762,1
"Inspired Teaching","200 Douglas Street, NE",3064,"PCS",5,516,"ES/MS",40800,2824824,"Facility Allowance",NA,5941848,"Facilities Allowance","Ongoing",8766672,"Facilities Allowance",NA,317,14,35,34,0.11,0.11,0.04,129,5474,69,146,11515,NA,NA,-77.0025452,38.9236743,215,16990,1
"J.O. Wilson Elementary","660 K Street NE",339,"DCPS",6,480,"ES",98896,4264356,"Partial Modernization",2010,0,"Systems Renewals","",4264356,"Partial Modernization","Stuart-Hobson MS",466,6,232,47,0.5,0.1,0.01,212,8884,43,0,0,"Phase I","Eastern HS",-76.9969383,38.9029977,43,8884,1
"Janney Elementary","4130 Albemarle St NW",254,"DCPS",3,700,"ES",96083,37443325,"Full Modernization",2011,0,"Systems Renewals","",37949758,"Full Modernization","Deal MS",693,30,8,38,0.01,0.05,0.04,139,53490,390,0,0,"Full","Wilson HS",-77.0812196,38.9474491,395,54214,1
"Jefferson Middle","801 7th St SW",433,"DCPS",6,570,"MS",108992,0,"Stabilized",NA,35993000,"Full Modernization","2020",35993000,"Full Modernization","",277,3,179,64,0.65,0.23,0.01,NA,0,0,330,63146,"Phase 0","Eastern HS",-77.0229317,38.8798501,330,63146,1
"Jo-Arz Academy (Closed 2006)","220 Taylor Street NE",NA,"PCS",5,NA,"CLOSED",NA,393584,"Facility Allowance",NA,NA,"CLOSED",NA,393584,"Closed",NA,NA,NA,NA,NA,NA,NA,NA,NA,NA,NA,0,0,NA,NA,-77.0036779,38.941395,0,0,0
"Johnson Middle","1400 Bruce Pl SE",416,"DCPS",8,730,"MS",182496,18602234,"Partial Modernization",2013,-5857,"Systems Renewals","",20521528,"Partial Modernization",NA,291,3,229,103,0.79,0.35,0.01,627,25483,102,0,-8,"Phase I","Ballou HS",-76.9836523,38.8511843,112,28112,1
"KAMIT Institute (Closed 2010)","100 Peabody Street NW",NA,"PCS",4,NA,"CLOSED",NA,3537694,"Facility Allowance",NA,NA,"CLOSED",NA,3537694,"Closed",NA,NA,NA,NA,NA,NA,NA,NA,NA,NA,NA,0,0,NA,NA,-77.0126091,38.9623344,0,0,0
"Kelly Miller Middle","301 49th St NE",421,"DCPS",7,600,"MS",114992,34578507,"Full Replacement",2004,0,"Systems Renewals","",34578507,"Full Modernization","",546,7,382,146,0.7,0.27,0.01,211,57631,301,0,0,"Full","Woodson HS",-76.9321175,38.8933117,301,57631,1
"Ketcham Elementary","1919 15th St SE",257,"DCPS",8,325,"ES",88288,8328691,"Partial Modernization",2012,0,"Systems Renewals","",8336451,"Partial Modernization","Kramer MS",309,0,265,37,0.86,0.12,0,286,25627,94,0,0,"Phase I","Anacostia HS",-76.9836485,38.8660524,94,25651,1
"Key Elementary","5001 Dana Pl NW",272,"DCPS",3,364,"ES",50000,13007488,"Full Modernization",2003,0,"Systems Renewals","",13007488,"Full Modernization","Hardy MS",383,28,12,27,0.03,0.07,0.07,131,35735,260,0,0,"Full","Wilson HS",-77.100542,38.926599,260,35735,1
"Kimball Elementary","3375 Minnesota Ave SE",259,"DCPS",7,398,"ES",83392,0,"Stabilized",NA,17696000,"Full Modernization","2016",17696000,"Full Modernization","Sousa MS",348,0,268,48,0.77,0.14,0,240,0,0,212,44462,"Phase 0","Anacostia HS",-76.9575142,38.8828821,212,44462,1
"King, M.L. Elementary","3200 6th St SE",344,"DCPS",8,444,"ES",65496,4118755,"Partial Modernization",2010,372458,"Systems Renewals","",6567738,"Partial Modernization","Hart MS",372,2,327,55,0.88,0.15,0.01,176,9276,63,6,839,"Phase 0","Ballou HS",-76.9980914,38.8425064,100,14792,1
"KIPP-AIM/Discover/Hts","2600 Douglass Place, SE",NA,"PCS",8,1300,"ES/MS",137700,16736533,"Facility Allowance",NA,19981104,"Facilities Allowance","Ongoing",36717637,"Facilities Allowance",NA,1066,1,621,153,0.58,0.14,0,129,12874,122,145,15370,NA,NA,-76.9913927,38.8566681,267,28244,2
"KIPP-Arts & Tech/Quest","5300 Blaine Street, NE",NA,"PCS",8,600,"ES",67375,1517568,"Facility Allowance",NA,9259536,"Facilities Allowance","Ongoing",10777104,"Facilities Allowance",NA,494,2,305,57,0.62,0.12,0,136,2529,23,137,15433,NA,NA,-76.9258818,38.8917411,160,17962,2
"KIPP-College Prep","1401 Brentwood Parkway, NE",1123,"PCS",5,900,"HS",187423,5814288,"Facility Allowance",NA,8509776,"Facilities Allowance","Ongoing",14324064,"Facilities Allowance",NA,454,0,232,86,0.51,0.19,0,413,6460,31,45,9455,NA,NA,-76.9944198,38.909317,76,15916,1
"KIPP-Connect/NE/Spring","1375 Mt Olivet Road, NE",NA,"PCS",5,1000,"ES/MS",67000,2537088,"Facility Allowance",NA,9915576,"Facilities Allowance","Ongoing",12452664,"Facilities Allowance",NA,529,3,289,48,0.55,0.09,0.01,127,2537,38,148,9916,NA,NA,-76.9814619,38.907437,186,12453,2
"KIPP-GROW/LEAD/WILL","421 P Street, NW",NA,"PCS",6,1000,"ES/MS",100671,13246127,"Facility Allowance",NA,17956752,"Facilities Allowance","Ongoing",31202879,"Facilities Allowance",NA,958,10,405,110,0.42,0.11,0.01,105,13246,132,178,17957,NA,NA,-77.018128,38.909942,310,31203,2
"KIPP-KEY/LEAP/Promise","4801 Benning Road, SE",NA,"PCS",7,1000,"ES/MS",84681,22962320,"Facility Allowance",NA,19456272,"Facilities Allowance","Ongoing",42418592,"Facilities Allowance",NA,1038,4,557,111,0.54,0.11,0,82,22962,271,230,19456,NA,NA,-76.9343991,38.8826376,501,42419,2
"Kramer Middle","1700 Q St SE",417,"DCPS",8,600,"MS",153984,30951777,"Partial Modernization",2014,0,"Systems Renewals","",35059047,"Partial Modernization",NA,333,0,267,110,0.8,0.33,0,462,51586,201,0,0,"Phase I","Anacostia HS",-76.9799006,38.8717022,228,58432,1
"Lafayette Elementary","5701 Broad Branch Rd NW",261,"DCPS",4,516,"ES",113600,9939007,"Stabilized",2015,59373105,"Full Modernization","2016",78650000,"Full Modernization","Deal MS",697,21,19,47,0.03,0.07,0.03,163,19262,87,523,115064,"Full","Wilson HS",-77.0679076,38.9664459,692,152422,1
"LAMB Missouri Ave","1375 Missouri Avenue, NW",193,"PCS",4,175,"ES",16468,NA,"Facility Allowance",NA,NA,"Facilities Allowance","Ongoing",NA,"Facilities Allowance",NA,NA,129,40,38,0.12,0.11,0.38,107,34577,367,0,0,NA,NA,-77.0323824,38.9622483,0,0,1
"LAMB Perry St","1800 Perry Street, NE",193,"PCS",5,200,"ES",20200,6050898,"Facility Allowance",NA,6410448,"Facilities Allowance","Ongoing",12461346,"Facilities Allowance",NA,342,129,40,38,0.12,0.11,0.38,107,30254,300,317,32052,NA,NA,-76.9783016,38.9363691,617,62307,1
"LAMB Taylor St. (Closed)","1600 Taylor Street NE",NA,"PCS",5,NA,"CLOSED",NA,237000,"Facility Allowance",NA,NA,"CLOSED",NA,237000,"Closed",NA,NA,NA,NA,NA,NA,NA,NA,NA,NA,NA,0,0,NA,NA,-76.9823945,38.9410802,0,0,0
"Langdon Elementary","1900 Evarts St NE",262,"DCPS",5,500,"ES",101392,19828246,"Partial Modernization",2015,0,"Systems Renewals","",20824380,"Partial Modernization","McKinley MS",340,17,191,56,0.56,0.16,0.05,298,39656,196,0,0,"Phase I","Dunbar HS",-76.9774768,38.9249969,205,41649,1
"Langley Elementary","101 T Street NE",370,"DCPS",5,530,"ES",100000,10253618,"Partial Modernization",2011,0,"Systems Renewals","",10273670,"Partial Modernization","McKinley MS",297,3,185,44,0.62,0.15,0.01,337,19346,103,0,0,"Phase II","Dunbar HS",-77.005475,38.914235,103,19384,1
"LaSalle-Backus Ed Campus","501 Riggs Road NE",264,"DCPS",4,400,"ES/MS",63000,14206295,"Partial Modernization",2012,0,"Systems Renewals","",14545500,"Partial Modernization","",349,106,183,50,0.52,0.14,0.3,181,35516,225,0,0,"Phase I","Coolidge HS",-76.9997759,38.9597849,231,36364,1
"Latin Am Youth Cntr Career Academy","3047 15th Street, NW",104,"PCS",1,225,"ALT",15500,3701585,"Facility Allowance",NA,3561360,"Facilities Allowance","Ongoing",7262945,"Facilities Allowance",NA,190,36,0,6,0,0.03,0.19,82,16451,239,230,15828,NA,NA,-77.0357768,38.9285225,469,32280,1
"Leckie Elementary","4201 M L King Ave SW",266,"DCPS",8,480,"ES",65000,595860,"Partial Modernization",2012,0,"Systems Renewals","",595860,"Partial Modernization","Hart MS",478,8,226,53,0.47,0.11,0.02,136,1241,9,0,0,"Phase I","Ballou HS",-77.0132599,38.8282308,9,1241,1
"Lee Montessori","301 Douglas Street, NE",228,"PCS",5,135,"ES",13200,227328,"Facility Allowance",NA,1387056,"Facilities Allowance","Ongoing",1614384,"Facilities Allowance",NA,74,0,10,5,0.14,0.07,0,178,1684,17,105,10274,NA,NA,-77.0020396,38.9234284,122,11958,1
"Ludlow-Taylor Elementary","659 G St NE",271,"DCPS",6,362,"ES",66896,11489803,"Partial Modernization",2013,-1026290,"Systems Renewals","",11762825,"Partial Modernization","Stuart-Hobson MS",340,3,109,31,0.32,0.09,0.01,197,31740,172,-15,-2835,"Phase I","Eastern HS",-76.9963992,38.8985144,176,32494,1
"Luke Moore High","1001 Monroe St NE",884,"DCPS",5,350,"ALT",65528,16352780,"Full Modernization",2006,0,"Systems Renewals","",16352780,"Full Modernization","",350,2,0,41,0,0.12,0.01,187,46722,250,0,0,"Full","City-Wide",-76.992102,38.93199,250,46722,1
"Macfarland Middle (Swing)","4400 Iowa Ave NW",NA,"DCPS",4,550,"MS",110000,874564,"Stabilized",NA,50026000,"Full Modernization","2018",53650564,"Full Modernization",NA,NA,NA,NA,NA,NA,NA,NA,NA,NA,8,455,90956,NA,NA,-77.0273427,38.9439461,488,97546,1
"Malcolm X Elementary  (Closed 2013)","1351 Alabama Ave SE",NA,"DCPS",8,400,"CLOSED",110800,0,"Stabilized",NA,0,"CLOSED","Closed",0,"Closed",NA,NA,NA,NA,NA,NA,NA,NA,NA,NA,0,0,0,NA,NA,-76.986448,38.844475,0,0,0
"Malcolm X Elementary at Green","1500 Mississippi Ave. SE Washington",308,"DCPS",8,248,"ES",77700,0,"Stabilized",NA,0,"Systems Renewals","",52963,"Stabilized","Johnson MS",244,0,207,34,0.85,0.14,0,NA,0,0,0,0,"Phase 0","Ballou HS",-76.9836028,38.8416964,1,214,1
"Mamie D Lee Sp Ed (Closed 2015)","100 Galatin St NE",265,"DCPS",5,0,"SPED",45800,757876,"Stabilized",NA,0,"Systems Renewals","",757876,"Closed",NA,56,4,29,0,0.52,0,0.07,1438,6316,17,0,0,NA,NA,-77.0072498,38.9529268,17,NA,1
"Mann Elementary","4430 Newark St NW",273,"DCPS",3,370,"ES",60969,34565362,"Full Modernization",2015,-500000,"Systems Renewals","",37197238,"Full Modernization","Hardy MS",302,34,4,12,0.01,0.04,0.11,202,93420,567,-8,-1351,"Full","Wilson HS",-77.087418,38.934026,610,100533,1
"Marie Reed Elementary","2201 18th St. NW",284,"DCPS",1,470,"ES",162688,2970097,"Stabilized",2015,54503000,"Full Modernization","2017",64904196,"Full Modernization","Col Hts. Ed. Campus (6-8)",393,189,143,41,0.36,0.1,0.48,414,6319,18,335,115964,"Phase 0","Cardozo HS (9-12)",-77.0416361,38.9183938,399,138094,1
"Marshall PK3-8th (Closed 2013)","3100 Fort Lincoln Drive SE",NA,"DCPS",5,400,"CLOSED",103800,0,"Stabilized",NA,0,"CLOSED","Closed",0,"Closed",NA,NA,NA,NA,NA,NA,NA,NA,NA,NA,0,0,0,NA,NA,-76.9575343,38.9272794,0,0,0
"Mary McLeod Bethune 42nd St (Closed)","253 42nd Street NE",NA,"PCS",7,NA,"CLOSED",NA,691425,"Facility Allowance",NA,NA,"CLOSED",NA,691425,"Closed",NA,NA,NA,NA,NA,NA,NA,NA,NA,NA,NA,0,0,NA,NA,-76.9425858,38.894125,0,0,0
"Mary McLeod Bethune Academy Jackson St","1404 Jackson Street, NE",135,"PCS",5,500,"ES/MS",56927,6686938,"Facility Allowance",NA,7141464,"Facilities Allowance","Ongoing",13828402,"Facilities Allowance",NA,381,8,237,35,0.62,0.09,0.02,149,13374,117,125,14283,NA,NA,-76.9863281,38.9295686,243,27657,1
"Mary McLeod Bethune Crestwood (Closed)","5413 16th Street NW",NA,"PCS",4,NA,"CLOSED",NA,843148,"Facility Allowance",NA,NA,"CLOSED",NA,843148,"Closed",NA,NA,NA,NA,NA,NA,NA,NA,NA,NA,NA,0,0,NA,NA,-77.035698,38.9558097,0,0,0
"Maury Elementary","1250 Constitution Ave NE",274,"DCPS",6,300,"ES",46800,6444395,"Partial Modernization",2011,5044000,"Full Modernization","2016",12620745,"Full Modernization","Eliot-Hine MS",366,2,48,23,0.13,0.06,0.01,128,21481,138,108,16813,"Phase I","Eastern HS",-76.9886668,38.8921729,270,42069,1
"Maya Angelou Evans Campus","5600 E Capitol Street, NE",101,"PCS",7,450,"ALT",78625,11218068,"Facility Allowance",NA,4723488,"Facilities Allowance","Ongoing",15941556,"Facilities Allowance",NA,252,0,0,88,0,0.35,0,312,24929,143,60,10497,NA,NA,-76.9199181,38.8902854,203,35426,1
"Maya Angelou Shaw Campus (Closed)","1851 9th Street NW",NA,"PCS",1,NA,"CLOSED",29300,2571219,"Facility Allowance",NA,NA,"CLOSED",NA,2571219,"Closed",NA,NA,NA,NA,NA,NA,NA,NA,NA,NA,88,0,0,NA,NA,-77.0236584,38.9153791,88,NA,0
"Maya Angelou Young Adult Learning Cntr","5600 E Capitol Street, NE",137,"PCS",7,450,"ADULT",47175,1144584,"Facility Allowance",NA,2755368,"Facilities Allowance","Ongoing",3899952,"Facilities Allowance",NA,147,0,1,17,0.01,0.12,0,321,2544,24,58,6123,NA,NA,-76.9199181,38.8902854,83,8667,1
"MC Terrell Elementary (Closed 2013)","3301 Wheeler Rd. SE",NA,"DCPS",8,NA,"CLOSED",112000,1706121,"Stabilized",NA,0,"CLOSED","Closed",1706121,"Closed",NA,NA,NA,NA,NA,NA,NA,NA,NA,NA,15,0,0,NA,NA,NA,NA,15,NA,0
"McKinley Middle","151 T St NE",435,"DCPS",5,340,"MS",62000,15000000,"Full Modernization",2014,NA,"Systems Renewals","",15000000,"Full Modernization","",202,5,119,31,0.59,0.15,0.02,307,44118,242,0,0,"Full","Dunbar HS",-77.004889,38.9145641,242,44118,1
"McKinley Technology High","151 T St NE",458,"DCPS",5,1160,"HS",282200,77382544,"Full Modernization",2004,0,"Systems Renewals","",77443210,"Full Modernization","",645,6,239,12,0.37,0.02,0.01,438,66709,274,0,0,"Full","City-Wide",-77.004889,38.9145641,274,66761,1
"MEI Futures (Closed 2009)","6000 New Hampshire Ave NE",NA,"PCS",4,NA,"CLOSED",NA,357535,"Facility Allowance",NA,NA,"CLOSED",NA,357535,"Closed",NA,NA,NA,NA,NA,NA,NA,NA,NA,NA,NA,0,0,NA,NA,-77.005051,38.963848,0,0,0
"Meridian","2120 13th Street, NW",165,"PCS",1,718,"ES/MS",61900,20265712,"Facility Allowance",NA,11977416,"Facilities Allowance","Ongoing",32243128,"Facilities Allowance",NA,639,176,294,77,0.46,0.12,0.28,97,28225,327,193,16682,NA,NA,-77.0299375,38.9185351,521,44907,1
"Miner Elementary","601 15th St NE",280,"DCPS",6,550,"ES",76896,6391359,"Full Replacement",2003,0,"Systems Renewals","",6391359,"Full Modernization","Eliot-Hine MS",398,7,296,66,0.74,0.17,0.02,193,11621,83,0,0,"Full","Eastern HS",-76.9829046,38.8979598,83,11621,1
"Montgomery ES (Closed 20010)","421 P St NW",NA,"DCPS",6,NA,"CLOSED",73700,6934511,"Stabilized",NA,0,"CLOSED","Closed",6934511,"Closed",NA,NA,NA,NA,NA,NA,NA,NA,NA,NA,94,0,0,NA,NA,NA,NA,94,NA,0
"Moten Elementary","1565 Morris Rd SE",285,"DCPS",8,480,"ES",99696,27716993,"Full Modernization",2012,0,"Systems Renewals","",27856881,"Full Modernization","Kramer MS",395,0,348,65,0.88,0.16,0,252,57744,278,0,0,"Full","Anacostia HS",-76.9828753,38.8564345,279,58035,1
"Mundo Verde Bilingual","30 P Street, NW",3065,"PCS",5,568,"ES",36148,3140088,"Facility Allowance",NA,7572576,"Facilities Allowance","Ongoing",10712664,"Facilities Allowance",NA,404,84,57,22,0.14,0.05,0.21,89,5528,87,209,13332,NA,NA,-77.0103408,38.9092812,296,18860,1
"Murch Elementary","4810 36th St NW",287,"DCPS",3,488,"ES",100000,748083,"Stabilized",2015,63156000,"Full Modernization","2018",68294774,"Full Modernization","Deal MS",620,56,18,23,0.03,0.04,0.09,77,1533,16,1324,129418,"Phase 0","Wilson HS",-77.0704556,38.9527132,1432,139948,1
"Nalle Elementary","219 50th St SE",288,"DCPS",7,400,"ES",83900,11521407,"Partial Modernization",2012,0,"Systems Renewals","",11570572,"Partial Modernization","Kelly Miller MS",384,6,295,45,0.77,0.12,0.02,218,28804,137,0,0,"Phase I","Woodson HS",-76.9311143,38.8860027,138,28926,1
"National Collegiate Prep","4600 Livingston Road, SE",1120,"PCS",8,319,"HS",50000,4199632,"Facility Allowance",NA,5735664,"Facilities Allowance","Ongoing",9935296,"Facilities Allowance",NA,306,0,213,40,0.7,0.13,0,163,13165,84,115,17980,NA,NA,-77.0031886,38.8239325,199,31145,1
"New School (Closed 2006)","1920 Bladensburg Road NE",NA,"PCS",5,NA,"CLOSED",49116,4109909,"Facility Allowance",NA,NA,"CLOSED",NA,4109909,"Closed",NA,NA,NA,NA,NA,NA,NA,NA,NA,NA,84,0,0,NA,NA,-76.9737654,38.9164261,84,NA,0
"New Vistas Prep (Closed 1999)","100 Peabody Street NW",NA,"PCS",4,NA,"CLOSED",NA,353492,"Facility Allowance",NA,NA,"CLOSED",NA,353492,"Closed",NA,NA,NA,NA,NA,NA,NA,NA,NA,NA,NA,0,0,NA,NA,-77.0126091,38.9623344,0,0,0
"Nia Community (Closed 2011)","3845 South Capitol Street SW",NA,"PCS",8,NA,"CLOSED",NA,2482515,"Facility Allowance",NA,NA,"CLOSED",NA,2482515,"Closed",NA,NA,NA,NA,NA,NA,NA,NA,NA,NA,NA,0,0,NA,NA,-77.0088402,38.8341523,0,0,0
"Noyes Elementary","2725 10th St NE",290,"DCPS",5,391,"ES",51496,24719301,"Full Modernization",2004,0,"Systems Renewals","",24719301,"Full Modernization","Brookland MS",289,11,182,44,0.63,0.15,0.04,178,63221,480,0,0,"Full","Dunbar HS",-76.9915985,38.9250297,480,63221,1
"Options","1375 E Street, NE",169,"PCS",6,268,"MS/HS",66622,9184284,"Facility Allowance",NA,5023392,"Facilities Allowance","Ongoing",14207676,"Facilities Allowance",NA,268,0,218,168,0.81,0.63,0,249,34270,138,75,18744,NA,NA,-76.986356,38.895719,213,53014,1
"Options Satillite Campus (Closed)","702 15th Street NE",NA,"PCS",6,NA,"CLOSED",NA,756800,"Facility Allowance",NA,NA,"CLOSED",NA,756800,"Closed",NA,NA,NA,NA,NA,NA,NA,NA,NA,NA,NA,0,0,NA,NA,-76.983992,38.899216,0,0,0
"Orr Elementary","2200 Minnesota Ave SE",291,"DCPS",8,392,"ES",75900,0,"Stabilized",NA,41995000,"Full Modernization","",44995000,"Full Modernization","Kramer MS",384,2,295,54,0.77,0.14,0.01,198,0,0,553,107130,"Phase 0","Anacostia HS",-76.974441,38.8720446,593,114783,1
"Oyster-Adams, Adams Ed Campus","2020 19th St. NW",292,"DCPS",1,324,"MS",59400,3803375,"Stabilized",NA,12236000,"Partial Modernization","2019",16039375,"Partial Modernization",NA,314,NA,NA,NA,NA,NA,NA,NA,11739,64,206,37765,"Phase 0","Wilson HS",-77.0443928,38.9172561,270,49504,1
"Oyster-Adams, Oyster Ed Campus","2801 Calvert St NW",292,"DCPS",3,350,"ES",47984,11000000,"Full Replacement",2001,0,"Systems Renewals","",11000000,"Full Modernization",NA,263,NA,NA,NA,NA,NA,NA,NA,0,0,0,0,"Full","Wilson HS",-77.0572024,38.9235663,229,31429,1
"Patterson Elementary","4399 South Capitol Terr SW",294,"DCPS",8,382,"ES",76896,32570942,"Full Replacement",2004,0,"Systems Renewals","",5365870,"Full Modernization","Hart MS",380,1,323,44,0.85,0.12,0,202,85264,424,0,0,"Full","Ballou HS",-77.0081965,38.8267436,70,14047,1
"Paul Public Charter Middle /High","5800 8th Street, NW",NA,"PCS",4,700,"MS/HS",127988,22873214,"Facility Allowance",NA,13139544,"Facilities Allowance","Ongoing",36012758,"Facilities Allowance",NA,701,NA,NA,NA,0,0,0,32629.41,32676,179,103,18771,NA,NA,-77.0248615,38.9613283,281,51447,1
"Payne Elementary","1445 C St SE",295,"DCPS",6,348,"ES",83792,22389213,"Stabilized",2015,27450,"Full Modernization","2016",27815086,"Full Modernization","Eliot-Hine MS",277,5,165,30,0.6,0.11,0.02,302,64337,267,0,79,"Full","Eastern HS",-76.984559,38.884501,332,79928,1
"Peabody Elementary","425 C St NE",301,"DCPS",6,228,"ES",37800,7028816,"Partial Modernization",2013,0,"Systems Renewals","",7099258,"Partial Modernization","Stuart-Hobson MS",227,4,16,10,0.07,0.04,0.02,167,30828,186,0,0,"Phase I","Eastern HS",-76.9998748,38.8928043,188,31137,1
"Perry Street Prep","1800 Perry Street, NE",161,"PCS",5,755,"ES/MS",171000,28592629,"Facility Allowance",NA,11602536,"Facilities Allowance","Ongoing",40195165,"Facilities Allowance",NA,619,10,343,93,0.55,0.15,0.02,276,142963,167,68,58013,NA,NA,-76.9783016,38.9363691,235,200976,1
"Phelps ACE High","704 26th Street NE",478,"DCPS",5,512,"HS",146976,66594065,"Full Modernization",2008,0,"Systems Renewals","",32570942,"Full Modernization","",323,9,166,42,0.51,0.13,0.03,455,130067,453,0,0,"Full","City-Wide",-76.9721088,38.9020565,222,63615,1
"Plummer Elementary","4601 Texas Ave SE",299,"DCPS",7,448,"ES",69392,13846933,"Partial Modernization",2014,26191,"Systems Renewals","",14299544,"Partial Modernization","Sousa MS",428,24,354,54,0.83,0.13,0.06,162,30908,200,0,58,"Phase I","Anacostia HS",-76.9396434,38.88707,206,31919,1
"Potomac Prep","4401 8th Street, NE",117,"PCS",5,525,"ES/MS",42016,7783669,"Facility Allowance",NA,7966200,"Facilities Allowance","Ongoing",15749869,"Facilities Allowance",NA,425,0,261,50,0.61,0.12,0,99,14826,185,190,15174,NA,NA,-76.9944091,38.9430337,375,30000,1
"Powell Elementary","1350 Upshur St NW",300,"DCPS",4,304,"ES",76848,25490976,"Stabilized",2015,2504026,"Full Modernization","2016",44744174,"Full Modernization","Col. Hts. EC (6-8)",446,250,202,57,0.45,0.13,0.56,172,83852,332,33,8237,"Full","Cardozo HS (9-12)",-77.031615,38.941504,582,147185,1
"PR Harris PK3-8th (Closed 2008)","4600 Livingston Rd SE",NA,"DCPS",8,NA,"CLOSED",348700,700,"Stabilized",NA,0,"CLOSED","Closed",700,"Closed",NA,NA,NA,NA,NA,NA,NA,NA,NA,NA,0,0,0,NA,NA,-77.0031886,38.8239325,0,NA,0
"Randle Highlands Elementary","1650 30th St SE",316,"DCPS",7,450,"ES",72476,21543183,"Full Replacement",2002,0,"Systems Renewals","",8391223,"Full Modernization","Sousa MS",360,3,228,49,0.63,0.14,0.01,201,47874,297,0,0,"Full","Anacostia HS",-76.9638892,38.870144,116,18647,1
"Raymond Ed Campus","915 Spring Rd NW",302,"DCPS",4,615,"ES/MS",73600,0,"Stabilized",NA,19567000,"Partial Modernization","2019",19567000,"Partial Modernization","",581,245,308,96,0.53,0.17,0.42,127,0,0,266,31816,"Phase 0","Roosevelt HS",-77.0261699,38.9359279,266,31816,1
"RH Terrell PK3-8th (Demolished 2006)","1000 1st St NW",NA,"DCPS",6,NA,"CLOSED",143700,1446215,"Stabilized",NA,0,"CLOSED","Demolished",1446215,"Closed",NA,NA,NA,NA,NA,NA,NA,NA,NA,NA,10,0,0,NA,NA,-77.0121753,38.9025237,10,NA,0
"Richard Milburn Academy (Closed 2002)","1027 45th Street NE",NA,"PCS",7,NA,"CLOSED",70000,743930,"Facility Allowance",NA,NA,"CLOSED",NA,743930,"Closed",NA,NA,NA,NA,NA,NA,NA,NA,NA,NA,11,0,0,NA,NA,-76.937087,38.904173,11,NA,0
"Richard Wright Journalism & Media Arts","770 M Street SE",3067,"PCS",6,400,"MS/HS",28000,2883960,"Facility Allowance",NA,5716920,"Facilities Allowance","Ongoing",8600880,"Facilities Allowance",NA,305,1,225,58,0.74,0.19,0,92,7210,103,204,14292,NA,NA,-76.995574,38.877003,307,21502,1
"River Terrace Special Ed Center","420 34th St NE",NA,"DCPS",7,180,"SPED",77707,32133707,"Full Modernization",2015,-2200000,"Systems Renewals","",35717175,"Full Modernization",NA,NA,NA,NA,NA,NA,NA,NA,NA,178521,414,-28,-12222,"Full",NA,-76.9575223,38.8949506,460,198429,1
"Ron Brown","4800 Meade St NE",NA,"DCPS",7,500,"HS",156000,0,"Stabilized",2015,44597000,"Full Modernization","2017",47347000,"Full Modernization",NA,NA,NA,NA,NA,NA,NA,NA,NA,NA,0,286,89194,NA,"City-Wide",-76.9326919,38.9067948,304,94694,1
"Roosevelt High/STAY","4301 13th St NW",459,"DCPS",4,1030,"HS",331840,117015598,"Full Modernization",2016,1887406,"Systems Renewals","",143557836,"Full Modernization","",1278,143,394,141,0.83,0.3,0.3,260,113607,353,6,1832,"Full","Roosevelt HS",-77.0278294,38.9433952,433,139377,1
"Roots","15 Kennedy Street, NW",173,"PCS",4,64,"ES",9000,3896368,"Facility Allowance",NA,1780680,"Facilities Allowance","Ongoing",5677048,"Facilities Allowance",NA,95,2,39,7,0.41,0.07,0.02,109,60881,433,198,27823,NA,NA,-77.010142,38.9567798,631,88704,1
"Roots N Capitol St","6222 North Capitol Street, NW",173,"PCS",4,56,"ES",1374,NA,"Facility Allowance",NA,NA,"Facilities Allowance","Ongoing",NA,"Facilities Allowance",NA,NA,2,39,7,0.41,0.07,0.02,109,69578,2836,0,0,NA,NA,-77.0094126,38.9661824,0,0,1
"Ross Elementary","1730 R St NW",305,"DCPS",2,176,"ES",22400,2604666,"Partial Modernization",2012,0,"Systems Renewals","",2612974,"Partial Modernization","Cardozo EC (6-8)",166,28,10,5,0.06,0.03,0.17,135,14799,116,0,0,"Phase I","Cardozo HS (9-12)",-77.039739,38.9123701,117,14846,1
"Rudolph (Closed)","5200 2nd St NW",NA,"DCPS",4,NA,"CLOSED",84400,100000,"Stabilized",NA,0,"CLOSED","Closed",100000,"Closed",NA,NA,NA,NA,NA,NA,NA,NA,NA,NA,1,0,0,NA,NA,-77.0140391,38.9538896,1,NA,0
"SAIL 16th St. (Closed 2011)","1100 16th Street NW",NA,"PCS",2,NA,"CLOSED",NA,1592727,"Facility Allowance",NA,NA,"CLOSED",NA,1592727,"Closed",NA,NA,NA,NA,NA,NA,NA,NA,NA,NA,NA,0,0,NA,NA,-77.037016,38.903943,0,0,0
"SAIL H St (Closed 2010)","1705 H Street NW",NA,"PCS",2,NA,"CLOSED",NA,1592657,"Facility Allowance",NA,NA,"CLOSED",NA,1592657,"Closed",NA,NA,NA,NA,NA,NA,NA,NA,NA,NA,NA,0,0,NA,NA,-77.0400669,38.9004679,0,0,0
"Sasha Bruce (Closed 2006)","1375 E Street NE",NA,"PCS",6,NA,"CLOSED",66622,1912721,"Facility Allowance",NA,NA,"CLOSED",NA,1912721,"Closed",NA,NA,NA,NA,NA,NA,NA,NA,NA,NA,29,0,0,NA,NA,-76.986356,38.895719,29,NA,0
"Savoy Elementary","2400 Shannon Pl SE",307,"DCPS",8,430,"ES",86800,34338372,"Full Modernization",2009,0,"Systems Renewals","",34338372,"Full Modernization","Kramer MS",408,4,333,51,0.82,0.13,0.01,213,79857,396,0,0,"Full","Anacostia HS",-76.9936331,38.8628014,396,79857,1
"School Without Walls High","2130 G St NW",466,"DCPS",2,520,"HS",74000,40512741,"Full Modernization",2009,0,"Systems Renewals","",40512741,"Full Modernization","",590,0,91,4,0.15,0.01,0,NA,77909,547,0,0,"Full","City-Wide",-77.0479046,38.8980853,547,77909,1
"School-Within-School at Goding ES","920 F STREET NE",175,"DCPS",6,450,"ES",59200,1365487,"Partial Modernization",2005,12028931,"Full Modernization","2019",16383000,"Full Modernization",NA,126,1,70,37,0.56,0.29,0.01,470,3034,23,203,26731,"Phase I","City-Wide",-76.9931808,38.8976365,277,36407,1
"Seaton Elementary","1503 10th St NW",309,"DCPS",6,325,"ES",65000,4298925,"Partial Modernization",2011,0,"Systems Renewals","",4302057,"Partial Modernization","Cardozo EC (6-8)",295,125,148,32,0.5,0.11,0.42,220,13227,66,0,0,"Phase I","Cardozo HS (9-12)",-77.0252248,38.9106173,66,13237,1
"SEED","4300 C Street SE",174,"PCS",7,421,"MS/HS",48128,31414511,"Facility Allowance",NA,16924320,"Facilities Allowance","Ongoing",48338831,"Facilities Allowance",NA,336,0,172,57,0.51,0.17,0,143,74619,653,352,40200,NA,NA,-76.9464327,38.8869027,1004,114819,1
"Sela","6015 Chillum Place, NE",197,"PCS",4,310,"ES",15680,483192,"Facility Allowance",NA,1611984,"Facilities Allowance","Ongoing",2095176,"Facilities Allowance",NA,86,8,24,8,0.28,0.09,0.09,NA,1559,31,103,5200,NA,NA,-77.0074503,38.9639099,134,6759,1
"Septima Clark (Closed 2013)","425 Chesapeake St SE",NA,"PCS",8,NA,"CLOSED",NA,3017000,"Facility Allowance",NA,NA,"CLOSED",NA,3017000,"Closed",NA,NA,NA,NA,NA,NA,NA,NA,NA,NA,NA,0,0,NA,NA,-76.9991386,38.8286428,0,0,0
"Sharpe Health Special Ed","4300 13th Street NW",312,"DCPS",4,450,"ES",80500,1332075,"Stabilized",NA,0,"Systems Renewals","",2089951,"Stabilized",NA,60,7,31,3,0.52,0.05,0.12,1342,11101,17,0,0,NA,NA,-77.03121,38.94344,26,4644,1
"Shaw Middle (Closed 2008)","925 Rhode Island Ave NW",NA,"DCPS",6,800,"CLOSED",230400,10000,"Stabilized",NA,0,"CLOSED","Closed",10000,"Closed",NA,NA,NA,NA,NA,NA,NA,NA,NA,NA,0,0,0,NA,NA,-77.025191,38.9120219,0,13,0
"Shepherd Elementary","7800 14th St NW",313,"DCPS",4,400,"ES",79696,20462934,"Stabilized",2015,1274389,"Full Modernization","2016",31576280,"Full Modernization","Deal MS",318,6,59,39,0.19,0.12,0.02,251,51157,257,16,3186,"Phase I","Wilson HS",-77.034304,38.98471,396,78941,1
"Shining Stars Montessori","6017 Chillum Place, NE",3066,"PCS",4,182,"ES",13580,947496,"Facility Allowance",NA,2211792,"Facilities Allowance","Ongoing",3159288,"Facilities Allowance",NA,118,12,20,1,0.17,0.01,0.1,NA,5206,70,163,12153,NA,NA,-77.007573,38.9640197,233,17359,1
"Simon Elementary","401 Mississippi Ave SE",315,"DCPS",8,325,"ES",66192,8505311,"Partial Modernization",2012,0,"Systems Renewals","",8672620,"Partial Modernization","Hart MS",293,2,227,38,0.77,0.13,0.01,226,26170,128,0,0,"Phase I","Ballou HS",-77.0000152,38.8359119,131,26685,1
"Smothers Elementary","4400 Brooks St NE",322,"DCPS",7,344,"ES",43000,152322,"Stabilized",NA,12679000,"Full Modernization","2020",12831322,"Full Modernization","Kelly Miller MS",275,6,203,30,0.74,0.11,0.02,156,443,4,295,36858,"Phase 0","Woodson HS",-76.9384696,38.8936613,298,37300,1
"Somerset","3301 Wheeler Road, SE",187,"PCS",8,850,"MS",112000,1217280,"Facility Allowance",NA,4498560,"Facilities Allowance","Ongoing",5715840,"Facilities Allowance",NA,240,0,160,44,0.67,0.18,0,467,1432,11,40,5292,NA,NA,-76.9939903,38.842272,51,6725,1
"Sousa Middle","3650 Ely Pl SE",427,"DCPS",7,636,"MS",136000,34545250,"Full Modernization",2008,0,"Systems Renewals","",34545250,"Full Modernization",NA,284,0,209,82,0.74,0.29,0,479,54316,254,0,0,"Full","Anacostia HS",-76.953055,38.8840586,254,54316,1
"Southeast Academy (Closed 2005)","645 Milwaukee Place SE",NA,"PCS",8,NA,"CLOSED",58539,3732006,"Facility Allowance",NA,NA,"CLOSED",NA,3732006,"Closed",NA,NA,NA,NA,NA,NA,NA,NA,NA,NA,64,0,0,NA,NA,-76.996974,38.847472,64,NA,0
"St. Coletta Special Education","1901 Independence Avenue, SE",1047,"PCS",7,525,"SPED",99540,6315254,"Facility Allowance",NA,4723488,"Facilities Allowance","Ongoing",11038742,"Facilities Allowance",NA,252,20,111,251,0.44,1,0.08,395,12029,63,47,8997,NA,NA,-76.9764947,38.8868079,111,21026,1
"Stanton Elementary","2701 Naylor Rd SE",319,"DCPS",8,586,"ES",95000,23307939,"Stabilized",2015,2165644,"Full Modernization","2016",36035000,"Full Modernization","Kramer MS",578,0,502,94,0.87,0.16,0,164,39775,245,23,3696,"Full","Anacostia HS",-76.9686199,38.8592905,379,61493,1
"Stoddert Elementary","4001 Calvert St NW",321,"DCPS",3,320,"ES",65200,34319480,"Full Modernization",2010,0,"Systems Renewals","",34319480,"Full Modernization","Hardy MS",418,72,18,15,0.04,0.04,0.17,156,107248,526,0,0,"Full","Wilson HS",-77.078913,38.922673,526,107248,1
"Stuart-Hobson Middle","410 E St NE",428,"DCPS",6,450,"MS",115242,44653267,"Full Modernization",2015,1190116,"Systems Renewals","",47666762,"Full Modernization","",423,3,143,83,0.34,0.2,0.01,272,99229,387,10,2645,"Full","Eastern HS",-77.0000602,38.8965658,414,105926,1
"Takoma Ed Campus","7010 Piney Branch Rd NW",324,"DCPS",4,450,"ES/MS",118992,26979598,"Full Modernization",2012,0,"Systems Renewals","",27036559,"Full Modernization","",442,113,189,70,0.43,0.16,0.26,269,59955,227,0,0,"Full","Coolidge HS",-77.022757,38.975217,227,60081,1
"Tech World (Closed 2002)","401 M ST SW",NA,"PCS",6,NA,"CLOSED",NA,1143098,"Facility Allowance",NA,NA,"CLOSED",NA,1143098,"Closed",NA,NA,NA,NA,NA,NA,NA,NA,NA,NA,NA,0,0,NA,NA,-77.0181687,38.8767074,0,0,0
"The Next Step","3047 15th Street, NW",168,"PCS",1,375,"ALT",31352,5675141,"Facility Allowance",NA,6804072,"Facilities Allowance","Ongoing",12479213,"Facilities Allowance",NA,363,203,0,13,0,0.04,0.56,86,15134,181,217,18144,NA,NA,-77.0357768,38.9285225,398,33278,1
"Thea Bowman (Closed 2011)","320 21st Street NE",NA,"PCS",7,NA,"CLOSED",15866,667214,"Facility Allowance",NA,NA,"CLOSED",NA,667214,"Closed",NA,NA,NA,NA,NA,NA,NA,NA,NA,NA,42,0,0,NA,NA,-76.9750664,38.8939588,42,NA,0
"Thomas Elementary","650 Anacostia Ave NE",325,"DCPS",7,474,"ES",87600,7563320,"Partial Modernization",2013,0,"Systems Renewals","",7572071,"Partial Modernization","Kelly Miller MS",408,6,295,44,0.72,0.11,0.01,215,15956,86,0,0,"Phase I","Woodson HS",-76.952024,38.901224,86,15975,1
"Thomson Elementary","1200 L St NW",326,"DCPS",2,320,"ES",74992,25521091,"Full Modernization",2006,0,"Systems Renewals","",25521091,"Full Modernization","Jefferson Acad. MS",272,141,124,40,0.46,0.15,0.52,276,79753,340,0,0,"Full","Eastern HS",-77.028505,38.9033859,340,79753,1
"Thurgood Marshall Academy","2427 Martin Luther King Jr. Avenue, SE",191,"PCS",8,420,"HS",63625,12321572,"Facility Allowance",NA,7403880,"Facilities Allowance","Ongoing",19725452,"Facilities Allowance",NA,395,0,216,50,0.55,0.13,0,161,29337,194,116,17628,NA,NA,-76.9937866,38.862346,310,46965,1
"Tree of Life Community","2315 18th Place, NE",183,"PCS",5,286,"ES/MS",28076,10057948,"Facility Allowance",NA,5360784,"Facilities Allowance","Ongoing",15418732,"Facilities Allowance",NA,286,2,185,25,0.65,0.09,0.01,98,35168,358,191,18744,NA,NA,-76.9777082,38.9207757,549,53912,1
"Tri-Community (Closed 2007)","3700 N Capitol Street NW",NA,"PCS",5,NA,"CLOSED",NA,2080524,"Facility Allowance",NA,NA,"CLOSED",NA,2080524,"Closed",NA,NA,NA,NA,NA,NA,NA,NA,NA,NA,NA,0,0,NA,NA,-77.011062,38.9362572,0,0,0
"Truesdell Ed Campus","800 Ingraham St NW",327,"DCPS",4,542,"ES/MS",69600,4465045,"Partial Modernization",2011,7489000,"Partial Modernization","2020",11954045,"Partial Modernization","",526,239,290,104,0.55,0.2,0.45,132,8238,64,108,13817,"Phase I","Roosevelt HS",-77.0244158,38.9539256,172,22055,1
"Tubman Elementary","3101 13th St NW",328,"DCPS",1,500,"ES",66592,3644743,"Partial Modernization",2009,0,"Systems Renewals","",3644743,"Partial Modernization","Col. Hts. EC (6-8)",498,167,302,69,0.61,0.14,0.34,134,7289,55,0,0,"Phase I","Cardozo HS (9-12)",-77.0297009,38.9286359,55,7289,1
"Turner Elementary","3264 Stanton Rd SE",329,"DCPS",8,530,"ES",101093,27580545,"Full Modernization",2013,0,"Systems Renewals","",27695424,"Full Modernization","Johnson MS",392,0,333,52,0.85,0.13,0,258,52039,273,0,0,"Full","Ballou HS",-76.9804398,38.8473486,274,52256,1
"Two Rivers Elementary","1227 4th Street, NE ",198,"PCS",6,380,"ES/MS",33076,11461694,"Facility Allowance",NA,9709392,"Facilities Allowance","Ongoing",21171086,"Facilities Allowance",NA,518,20,126,107,0.24,0.21,0.04,98,30162,347,294,25551,NA,NA,-77.0001838,38.9067354,640,55713,1
"Two Rivers Middle","1234 4th Street, NE",198,"PCS",6,144,"ES/MS",17929,9249094,"Facility Allowance",NA,9709392,"Facilities Allowance","Ongoing",18958486,"Facilities Allowance",NA,518,20,126,107,0.24,0.21,0.04,98,64230,516,542,67426,NA,NA,-77.000978,38.90642,1057,131656,1
"Tyler Elementary","1001 G St SE",330,"DCPS",6,564,"ES",69600,3750929,"Partial Modernization",2010,0,"Systems Renewals","",3750929,"Partial Modernization","Jefferson Acad. MS",522,9,239,74,0.46,0.14,0.02,133,6651,54,0,0,"Phase I","Eastern HS",-76.9922965,38.8810182,54,6651,1
"Van Ness Elementary","1150 5th St SE",NA,"DCPS",6,336,"ES",49400,10556642,"Stabilized",2015,17995000,"Full Modernization","2016",32448396,"Full Modernization","Jefferson Acad. MS",NA,NA,NA,NA,NA,NA,NA,NA,31419,214,364,53557,"Full","Eastern HS",-76.999143,38.8767476,657,96573,1
"Village Learning Center (Closed 2004)","33 Riggs Road NE",NA,"PCS",5,NA,"CLOSED",50600,2878377,"Facility Allowance",NA,NA,"CLOSED",NA,2878377,"Closed",NA,NA,NA,NA,NA,NA,NA,NA,NA,NA,57,0,0,NA,NA,-77.006643,38.9549208,57,NA,0
"Walker-Jones Ed Campus","1125 New Jersey Ave NW",332,"DCPS",6,700,"ES/MS",95000,40442253,"Full Replacement",2009,0,"Systems Renewals","",40442253,"Full Modernization","",465,8,348,124,0.75,0.27,0.02,204,57775,426,0,0,"Full","Dunbar HS",-77.0140256,38.9045185,426,57775,1
"Washington Academy G St (Closed 2008)","4625 G St SE",NA,"PCS",7,NA,"CLOSED",NA,910294,"Facility Allowance",NA,NA,"CLOSED",NA,910294,"Closed",NA,NA,NA,NA,NA,NA,NA,NA,NA,NA,NA,0,0,NA,NA,-76.9346599,38.880396,0,0,0
"Washington Academy M St (Closed 2008)","770 M Street SE",NA,"PCS",6,NA,"CLOSED",28000,1086613,"Facility Allowance",NA,NA,"CLOSED",NA,1086613,"Closed",NA,NA,NA,NA,NA,NA,NA,NA,NA,NA,39,0,0,NA,NA,-76.995574,38.877003,39,NA,0
"Washington Academy Penn Ave (Closed 2008)","3000 Pennsylvania Ave SE",NA,"PCS",7,NA,"CLOSED",NA,555990,"Facility Allowance",NA,NA,"CLOSED",NA,555990,"Closed",NA,NA,NA,NA,NA,NA,NA,NA,NA,NA,NA,0,0,NA,NA,-76.9638478,38.8711371,0,0,0
"Washington Latin Middle/High","5200 2nd Street, NW",NA,"PCS",4,685,"MS/HS",64320,12785724,"Facility Allowance",NA,12558480,"Facilities Allowance","Ongoing",25344204,"Facilities Allowance",NA,670,9,86,60,0.13,0.09,0.01,96,18665,199,195,18334,NA,NA,-77.013189,38.953489,394,36999,2
"Washington Math Science Tech","1920 Bladensburg Road NE",178,"PCS",5,350,"HS",49116,13661934,"Facility Allowance",NA,6279240,"Facilities Allowance","Ongoing",19941174,"Facilities Allowance",NA,335,3,222,72,0.66,0.21,0.01,147,39034,278,128,17941,NA,NA,-76.9737654,38.9164261,406,56975,1
"Washington Metropolitan High","300 Bryant Street NW",474,"DCPS",1,350,"ALT",49496,0,"Stabilized",NA,9900000,"Partial Modernization","2021",9900000,"Partial Modernization","",244,2,0,45,0,0.18,0.01,NA,0,0,200,28286,"Phase 0","City-Wide",-77.0167156,38.9202168,200,28286,1
"Washington Yu Ying","220 Taylor Street, NE",1117,"PCS",5,595,"ES",41118,7254586,"Facility Allowance",NA,9896832,"Facilities Allowance","Ongoing",17151418,"Facilities Allowance",NA,528,31,22,30,0.04,0.06,0.06,78,12193,176,241,16633,NA,NA,-77.0036779,38.941395,417,28826,1
"Watkins Elementary","420 12th St SE",333,"DCPS",6,587,"ES",69296,2675972,"Stabilized",2015,30313978,"Full Modernization","2017",39400200,"Full Modernization","Stuart-Hobson MS",500,4,98,45,0.2,0.09,0.01,139,4559,39,437,51642,"Phase 0","Eastern HS",-76.9898004,38.8834823,569,67121,1
"West Ed Campus","1338 Farragut St NW",336,"DCPS",4,278,"ES/MS",69642,0,"Stabilized",NA,35095000,"Full Modernization","2021",35095000,"Full Modernization","",267,27,112,44,0.42,0.16,0.1,261,0,0,504,126241,"Phase 0","Roosevelt HS",-77.032481,38.9513341,504,126241,1
"Wheatley Ed Campus","1299 Neal St NE",335,"DCPS",5,500,"ES/MS",86368,42645563,"Full Modernization",2009,0,"Systems Renewals","",42645768,"Full Modernization","",463,7,364,68,0.79,0.15,0.02,NA,85291,494,0,0,"Full","Dunbar HS",-76.9884533,38.9042927,494,85292,1
"Whittier Ed Campus","6201 5th St NW",338,"DCPS",4,520,"ES/MS",71092,5208611,"Partial Modernization",2012,0,"Systems Renewals","",5241031,"Partial Modernization","",350,38,214,74,0.61,0.21,0.11,203,10017,73,0,0,"Phase I","Coolidge HS",-77.019146,38.9658779,74,10079,1
"Wilkinson PK3-8th (Closed 2008)","2330 Pomeroy Rd. SE",NA,"DCPS",8,400,"CLOSED",144900,500000,"Stabilized",NA,0,"CLOSED","Closed",500000,"Closed",NA,NA,NA,NA,NA,NA,NA,NA,NA,NA,3,0,0,NA,NA,NA,NA,3,1250,0
"William E Doar Jr","705 Edgewood Street, NE",210,"PCS",5,624,"ES/MS",46835,12280675,"Facility Allowance",NA,8228616,"Facilities Allowance","Ongoing",20509291,"Facilities Allowance",NA,439,13,223,35,0.51,0.08,0.03,107,19681,262,176,13187,NA,NA,-76.9957981,38.9236618,438,32867,1
"William E Doar Jr, Soldiers Home (Closed)","3700 N Capitol Street NW",NA,"PCS",5,NA,"CLOSED",NA,1910351,"Facility Allowance",NA,NA,"CLOSED",NA,1910351,"Closed",NA,NA,NA,NA,NA,NA,NA,NA,NA,NA,NA,0,0,NA,NA,-77.011062,38.9362572,0,0,0
"Wilson High","3950 Chesapeake St NW",463,"DCPS",3,1700,"HS",376448,135126577,"Full Modernization",2011,0,"Systems Renewals","",135126577,"Full Modernization","",1788,106,550,263,0.31,0.15,0.06,211,79486,359,0,0,"Full","Wilson HS",-77.0764147,38.9504147,359,79486,1
"Woodson, H.D. High","540 55th St. NE",464,"DCPS",7,1000,"HS",253406,107742134,"Full Replacement",2011,0,"Systems Renewals","",107779131,"Full Modernization","",639,6,501,193,0.78,0.3,0.01,397,107742,425,0,0,"Full","Woodson HS",-76.9227134,38.8967763,425,107779,1
"World (Closed 1998)","1375 Missouri Ave NW",NA,"PCS",4,NA,"CLOSED",16468,454860,"Facility Allowance",NA,NA,"CLOSED",NA,454860,"Closed",NA,NA,NA,NA,NA,NA,NA,NA,NA,NA,28,0,0,NA,NA,-77.0323824,38.9622483,28,NA,0
"Young America Works (Closed 2010)","6015 Chillum Place NE",NA,"PCS",4,NA,"CLOSED",15680,3970618,"Facility Allowance",NA,NA,"CLOSED",NA,3970618,"Closed",NA,NA,NA,NA,NA,NA,NA,NA,NA,NA,253,0,0,NA,NA,-77.0074503,38.9639099,253,NA,0
"Young Technocrats (Closed 1999)","101 T Street NE",NA,"PCS",5,NA,"CLOSED",100000,285671,"Facility Allowance",NA,NA,"CLOSED",NA,285671,"Closed",NA,NA,NA,NA,NA,NA,NA,NA,NA,NA,3,0,0,NA,NA,-77.005475,38.914235,3,NA,0
"Youthbuild","3014 14th St NW",128,"PCS",1,100,"ALT",11709,2831123,"Facility Allowance",NA,2099328,"Facilities Allowance","Ongoing",4930451,"Facilities Allowance",NA,112,7,0,10,0,0.09,0.06,105,28311,242,179,20993,NA,NA,-77.0327382,38.9277886,421,49305,1
