"School_ID","Agency","Ward","School","Address","maxOccupancy","Level","totalSQFT","MajorExp9815","ProjectType","YrComplete","TotalAllotandPlan1621","FUTUREProjectType16.21","FutureYrComplete","LifetimeBudget","FeederMS","Total_Enrolled","Limited_English","At_Risk","SPED","AtRiskPer","SPEDPer","ESLPer","SqFtPerEnroll","SpentPerMaxOccupancy","SpentPerSqFt","TotalAllotandPlan1621perGSF","TotalAllotandPlan1621perMaxOcc","LifetimeBudgetperGSF","LifetimeBudgetperMaxOcc","Open_Now","ProjectPhase","FeederHS","longitude","latitude"
NA,"PCS",4,"Academia Bilingue (ABC) (Closed 2009)","209 Upshur Street NW",NA,"CLOSED",NA,1013952,"Facility Allowance",NA,NA,"CLOSED",NA,1013952,NA,NA,NA,NA,NA,NA,NA,NA,NA,NA,NA,0,0,0,0,0,NA,NA,-77.0141307,38.9425066
233,"PCS",5,"Academy of Hope NE","601 Edgewood Street, NE",75,"ADULT",9375,344926,"Facility Allowance",NA,2104589,"","Ongoing",2449516,NA,112,0,0,0,"0%","0%","0%",83,4228,84,224,28061,261,32660,1,NA,NA,-76.9971713,38.9237975
233,"PCS",8,"Academy of Hope SE","421 Alabama Avenue SE",111,"ADULT",12000,441506,"Facility Allowance",NA,2693875,"Facilities Allowance","Ongoing",3135380,NA,144,0,0,0,"0%","0%","0%",83,4228,66,224,24269,261,28247,1,NA,NA,-76.9998836,38.842743
217,"PCS",8,"Achievement Prep Elementary","1500 Mississippi Avenue, SE",350,"ES",23302,3963509,"Facility Allowance",NA,5004648,"Facilities Allowance","Ongoing",8968157,NA,267,1,132,23,"49%","9%","0%",87,11324,170,215,14299,385,25623,1,NA,NA,-76.9836028,38.8416964
1100,"PCS",8,"Achievement Prep Middle","908 Wahler Place, SE",450,"MS",33177,2316432,"Facility Allowance",NA,7141464,"Facilities Allowance","Ongoing",9457896,NA,381,0,192,51,"50%","13%","0%",87,5148,70,215,15870,285,21018,1,NA,NA,-76.9924085,38.834427
202,"DCPS",7,"Aiton Elementary","533 48th Pl  NE",442,"ES",57100,8916,"Stabilized",NA,12115000,"Partial Modernization","2019",14515000,"Kelly Miller MS",262,1,214,42,"0.816793893129771","0.16030534351145","0.00381679389312977",218,20,0,212,27410,254,32839,1,"Phase 0","Woodson HS",-76.9333547,38.8970081
NA,"PCS",5,"Assc. for Learning Through Arts (Closed 2010)","1600 Taylor Street NE",NA,"CLOSED",NA,1226332,"Facility Allowance",NA,NA,"CLOSED",NA,1226332,NA,NA,NA,NA,NA,NA,NA,NA,NA,NA,NA,0,0,0,0,0,NA,NA,-76.9823945,38.9410802
203,"DCPS",2,"Amidon-Bowen Elementary","401 Eye St  SW",400,"ES",70800,5993305,"Partial Modernization",2012,0,"Systems Renewals","",5993305,"Jefferson Acad. MS",345,6,254,90,"0.736231884057971","0.260869565217391","0.0173913043478261",205,14983,85,0,0,85,14983,1,"Phase I","Eastern HS",-77.0291221,38.9015926
450,"DCPS",8,"Anacostia High","1601 16th St  SE",837,"HS",204992,68228069,"Full Modernization",2012,0,"Systems Renewals","",68860993,"",661,0,586,186,"0.886535552193646","0.281391830559758","0",310,81515,333,0,0,336,82271,1,"Full","Anacostia HS",-76.9829543,38.8700237
140,"PCS",1,"AppleTree Early Learning  Columbia Hts.","2750 14th Street, NW ",176,"ES",12204,3303610,"Facility Allowance",NA,3055272,"Facilities Allowance","Ongoing",6358882,NA,163,37,58,10,"36%","6%","23%",75,18771,271,250,17360,521,36130,1,NA,NA,-77.0326704,38.9252369
3073,"PCS",6,"AppleTree Early Learning  Lincoln Park","138 12th Street, NE",63,"ES",8975,1236937,"Facility Allowance",NA,1124640,"Facilities Allowance","Ongoing",2361577,NA,60,2,5,5,"8%","8%","3%",150,19634,138,125,17851,263,37485,1,NA,NA,-76.9905578,38.8914903
1137,"PCS",7,"AppleTree Early Learning  Oklahoma","320 21st Street, NE",176,"ES",15866,2327592,"Facility Allowance",NA,3017784,"Facilities Allowance","Ongoing",5345376,NA,161,3,80,4,"50%","2%","2%",99,13225,147,190,17147,337,30371,1,NA,NA,-76.9750664,38.8939588
141,"PCS",6,"AppleTree Early Learning  SW","801 7th Street, SW",110,"ES",6162,736320,"Facility Allowance",NA,1611984,"Facilities Allowance","Ongoing",2348304,NA,86,4,41,2,"48%","2%","5%",72,6694,119,262,14654,381,21348,1,NA,NA,-77.0229317,38.8798501
NA,"PCS",6,"AppleTree Early Learning Amidon (Closed)","401 I Street SW",NA,"CLOSED",NA,699648,"Facility Allowance",NA,NA,"CLOSED",NA,699648,NA,NA,NA,NA,NA,NA,NA,NA,NA,NA,NA,0,0,0,0,0,NA,NA,-77.0182907,38.8798344
3072,"PCS",8,"AppleTree Early Learning SE (Sav Terr 2011)","2011 Savannah Terrace, SE",88,"ES",7484,2058816,"Facility Allowance",NA,3336432,"Facilities Allowance","Ongoing",5395248,NA,178,1,129,4,"72%","2%","1%",96,23396,275,446,37914,721,61310,1,NA,NA,-76.972974,38.8494641
3072,"PCS",8,"AppleTree Early Learning SE (Sav Terr 2017)","2017 Savannah Terrace, SE",88,"ES",9677,1560816,"Facility Allowance",NA,3336432,"Facilities Allowance","Ongoing",4897248,NA,178,1,129,4,"72%","2%","1%",96,17737,161,345,37914,506,55651,1,NA,NA,-76.9746704,38.8485617
NA,"PCS",5,"ARE Academy for Renewal in Ed (Closed 2003)","45 P St NW",NA,"CLOSED",18300,156702,"Facility Allowance",NA,NA,"CLOSED",NA,156702,NA,NA,NA,NA,NA,NA,NA,NA,NA,NA,NA,0,0,9,NA,0,NA,NA,-77.0105716,38.9098819
NA,"PCS",7,"Arts and Technology Academy  (Closed 2014)","5300 Blaine Street NE",NA,"CLOSED",67375,21620200,"Facility Allowance",NA,NA,"CLOSED",NA,21620200,NA,NA,NA,NA,NA,NA,NA,NA,NA,NA,NA,0,0,321,NA,0,NA,NA,-76.9258818,38.8917411
452,"DCPS",8,"Ballou High","3401 4th St  SE",1520,"HS",356000,141737725,"Full Replacement",2015,4007,"Systems Renewals","",162976011,"",755,0,644,276,"0.852980132450331","0.365562913907285","0",472,93249,398,0,3,458,107221,1,"Full","Ballou HS",-77.0014227,38.8393559
462,"DCPS",8,"Ballou STAY","3401 4th St  SE",NA,"ADULT",NA,0,"Full Replacement",2015,0,"Systems Renewals","",0,NA,591,0,0,52,"0","0.0879864636209814","0",602,NA,NA,0,0,0,0,1,"Full","City-Wide",-77.0014227,38.8393559
204,"DCPS",1,"Bancroft Elementary","1755 Newton St  NW",563,"ES",79792,1446450,"Stabilized",2015,59943000,"Add/Full Mod","2018",66496000,"Deal MS",508,279,181,54,"0.356299212598425","0.106299212598425","0.549212598425197",157,2569,18,751,106471,833,118110,1,"Phase 0","Wilson HS",-77.0405163,38.9347901
402,"DCPS",1,"Banneker High","800 Euclid St  NW",620,"HS",180000,671104,"Stabilized",NA,77074000,"Full Modernization","2021",78745104,"",449,3,113,0,"0.251670378619154","0","0.0066815144766147",401,1082,4,428,124313,437,127008,1,"Phase 0","City-Wide",-77.0239586,38.9235819
NA,"PCS",4,"Barbara Jordan (Closed 2009)","100 Peabody Street NW",NA,"CLOSED",NA,2169195,"Facility Allowance",NA,NA,"CLOSED",NA,2169195,NA,NA,NA,NA,NA,NA,NA,NA,NA,NA,NA,0,0,0,0,0,NA,NA,-77.0126091,38.9623344
205,"DCPS",4,"Barnard Elementary","430 Decatur St  NW",486,"ES",72496,24386910,"Full Replacement",2003,0,"Systems Renewals","",24386910,"Truesdell or West EC (6th-8th)",602,193,284,72,"0.471760797342193","0.119601328903654","0.320598006644518",120,50179,336,0,0,336,50179,1,"Full","Roosevelt HS",-77.018458,38.9479619
3068,"PCS",2,"Basis DC","410 8th Street, NW",620,"MS/HS",44179,4551672,"Facility Allowance",NA,10327944,"Facilities Allowance","Ongoing",14879616,NA,551,0,48,23,"9%","4%","0%",80,7341,103,234,16658,337,23999,1,NA,NA,-77.0233079,38.8953055
206,"DCPS",7,"Beers Elementary","3600 Alabama Ave  SE",430,"ES",77488,14813933,"Partial Modernization",2013,-24188,"Systems Renewals","",15123196,"Sousa MS",438,1,243,79,"0.554794520547945","0.180365296803653","0.00228310502283105",177,34451,191,0,-56,195,35170,1,"Phase I","Anacostia HS",-76.9556094,38.8646071
NA,"PCS",1,"Booker T Washington (Closed 2014)","1346 Florida Ave NW",NA,"CLOSED",30425,11508196,"Facility Allowance",NA,NA,"CLOSED",NA,11508196,NA,NA,NA,NA,NA,NA,NA,NA,NA,NA,NA,0,0,378,NA,0,NA,NA,-77.0311625,38.9199388
212,"DCPS",6,"Brent Elementary","301 North Carolina Ave  SE",369,"ES",47500,4475354,"Partial Modernization",2009,0,"Systems Renewals","",4485194,"Jefferson Acad. MS",368,5,23,22,"0.0625","0.0597826086956522","0.0135869565217391",129,12128,94,0,0,94,12155,1,"Phase I","Eastern HS",-77.0013712,38.8847202
142,"PCS",4,"Bridges (Combined bldgs)","1244 Taylor Street. NW",536,"ES",20676,3405436,"Facility Allowance",NA,5098368,"Facilities Allowance","Ongoing",8503804,NA,272,102,93,77,"34%","28%","38%",76,24325,316,247,9512,411,15865,1,NA,NA,-77.0283582,38.9407171
213,"DCPS",4,"Brightwood Ed Campus","1300 Nicholson St NW",584,"ES/MS",78000,22265461,"Full Modernization",2005,0,"Systems Renewals","",22269148,"",639,379,302,78,"0.472613458528951","0.122065727699531","0.593114241001565",122,38126,285,0,0,286,38132,1,"Full","Coolidge HS",-77.0301586,38.9607113
126,"PCS",4,"Briya Georgia Ave","3912 Georgia Avenue, NW",206,"ADULT",6053,2735486,"Facility Allowance",NA,3074016,"Facilities Allowance","Ongoing",5809502,NA,164,50,20,5,"4%","1%","10%",55,39837,305,508,14922,960,28201,1,NA,NA,-77.0250314,38.9391892
126,"PCS",1,"Briya Newton St","1755 Newton St  NW",100,"ADULT",6053,2735486,"Facility Allowance",NA,3074016,"Facilities Allowance","Ongoing",5809502,NA,164,50,20,5,"4%","1%","10%",55,82065,NA,508,30740,960,58095,1,NA,NA,-77.0405163,38.9347901
126,"PCS",1,"Briya Ontario Rd","2333 Ontario Road, NW (Main Office)",180,"ADULT",6054,2735486,"Facility Allowance",NA,3074016,"Facilities Allowance","Ongoing",5809502,NA,164,50,20,5,"4%","1%","10%",55,45591,NA,508,17078,960,32275,1,NA,NA,-77.0398021,38.9209625
NA,"DCPS",5,"Brookland Middle"," 1150  Michigan Avenue, NE",540,"MS",110000,58053351,"Full Replacement",2015,-1202174,"Systems Renewals","",62711400,NA,NA,NA,NA,NA,NA,NA,NA,NA,107506,528,-11,-2226,570,116132,1,"Full","Dunbar HS",-76.9918169,38.9374144
404,"DCPS",5,"Browne Ed Campus","850 26th St  NE",804,"ES/MS",215392,131951,"Stabilized",NA,20636000,"Partial Modernization","2019",23793129,"",353,23,241,56,"0.68271954674221","0.158640226628895","0.0651558073654391",610,164,1,96,25667,110,29593,1,"Phase 0","Eastern HS",-76.9708894,38.9026911
NA,"DCPS",1,"Bruce Monroe ES (Demolished 2010)","3012 Georgia Ave NW",NA,"CLOSED",110700,1499358,"Stabilized",NA,0,NA,"",1499358,NA,NA,NA,NA,NA,NA,NA,NA,NA,NA,14,0,0,14,NA,0,NA,NA,-77.0237871,38.9285372
296,"DCPS",1,"Bruce-Monroe at Park View ES","3560 Warder St  NW",609,"ES",82192,11264300,"Partial Modernization",2012,0,"Systems Renewals","",17026865,"CHEC (6-8)",465,290,235,52,"0.505376344086022","0.111827956989247","0.623655913978495",NA,18496,137,0,0,207,27959,1,"Phase I","Cardozo HS (9-12)",-77.0208201,38.9339752
346,"DCPS",5,"Bunker Hill Elementary","1401 Michigan Ave  NE",480,"ES/MS",69392,6533765,"Partial Modernization",2012,0,"Systems Renewals","",6544178,"Brookland MS",225,8,108,29,"0.48","0.128888888888889","0.0355555555555556",NA,13612,94,0,0,94,13634,1,"Phase I","Dunbar HS",-76.9848216,38.9420075
220,"DCPS",5,"Burroughs Elementary","1820 Monroe St  NE",450,"ES/MS",69696,8239048,"Partial Modernization",2013,0,"Systems Renewals","",8866114,"Brookland MS",297,14,156,53,"0.525252525252525","0.178451178451178","0.0471380471380471",235,18309,118,0,0,127,19702,1,"Phase I","Dunbar HS",-76.9788919,38.933612
221,"DCPS",7,"Burrville Elementary","801 Division Ave  NE",400,"ES",94992,2991980,"Partial Modernization",2010,0,"Systems Renewals","",2996347,"Kelly Miller MS",360,2,244,36,"0.677777777777778","0.1","0.00555555555555556",264,7480,31,0,0,32,7491,1,"Phase I","Woodson HS",-76.923953,38.9004502
247,"DCPS",7,"C.W. Harris Elementary","301 53rd St  SE",438,"ES",56000,0,"Stabilized",NA,12606000,"Partial Modernization","2020",12606000,"Kelly Miller MS",291,2,229,40,"0.786941580756014","0.13745704467354","0.00687285223367698",192,0,0,225,28781,225,28781,1,"Phase 0","Woodson HS",-76.9261671,38.883619
184,"PCS",4,"Capital City Elementary","100 Peabody Street, NW",333,"ES",57033,7704995,"Facility Allowance",NA,6035568,"Facilities Allowance","Ongoing",13740563,NA,322,95,72,15,"22%","5%","30%",177,7705,135,106,18125,241,41263,1,NA,NA,-77.0126091,38.9623344
1207,"PCS",4,"Capital City High","102 Peabody Street, NW",334,"HS",57033,5546488,"Facility Allowance",NA,6166776,"Facilities Allowance","Ongoing",11713264,NA,329,50,148,60,"45%","18%","15%",173,5546,97,108,18463,205,35070,1,NA,NA,-77.0126299,38.9626865
182,"PCS",4,"Capital City Middle","101 Peabody Street, NW",333,"MS",57033,5116360,"Facility Allowance",NA,5998080,"Facilities Allowance","Ongoing",11114440,NA,320,38,111,56,"35%","18%","12%",178,5116,90,105,18012,195,33377,1,NA,NA,-77.0110697,38.9627222
360,"DCPS",6,"Capitol Hill Montessori","215 G Street NE",360,"ES/MS",47200,975866,"Stabilized",NA,11987136,"Partial Modernization","2019",14637256,NA,310,3,25,11,"0.0806451612903226","0.0354838709677419","0.00967741935483871",NA,2711,21,254,33298,310,40659,1,"Phase 0","Eastern HS",-77.0025711,38.8985014
454,"DCPS",1,"Cardozo Ed Campus 6th-12th","1200 Clifton St. NW",1070,"MS/HS",397400,131527974,"Full Modernization",2013,0,"Systems Renewals","",132124454,"",781,266,573,188,"0.733674775928297","0.240717029449424","0.340588988476312",509,122923,331,0,0,332,123481,1,"Full","Cardozo HS (9-12)",-77.0280509,38.9224184
1119,"PCS",1,"Carlos Rosario  Harvard St","1100 Harvard Street, NW",1027,"ADULT",84000,36448508,"Facility Allowance",NA,23533944,"Facilities Allowance","Ongoing",59982452,NA,1256,113,0,0,"0%","0%","6%",67,35487,682,280,22915,714,58406,1,NA,NA,-77.0276499,38.9263689
1119,"PCS",5,"Carlos Rosario  V St.","514 V Street, NE",587,"ADULT",48000,20827719,"Facility Allowance",NA,13447968,"Facilities Allowance","Ongoing",34275687,NA,717,113,0,0,"0%","0%","6%",67,35487,1193,280,22910,714,58391,1,NA,NA,-76.9986344,38.9183706
188,"PCS",8,"Cedar Tree Academy","701 Howard Road, SE",400,"ES",31000,2065776,"Facility Allowance",NA,6710352,"Facilities Allowance","Ongoing",8776128,NA,358,0,261,9,"73%","3%","0%",87,5164,67,216,16776,283,21940,1,NA,NA,-76.999207,38.8641137
NA,"PCS",5,"Center City Brentwood (Closed)","2019 Rhode Island Ave NE",NA,"CLOSED",NA,301573,"Facility Allowance",NA,NA,"CLOSED",NA,301573,NA,NA,NA,NA,NA,NA,NA,NA,NA,NA,NA,0,0,0,0,0,NA,NA,-76.9754974,38.929321
1103,"PCS",4,"Center City Brightwood","6008 Georgia Avenue, NW",280,"ES/MS",37010,4766091,"Facility Allowance",NA,4648512,"Facilities Allowance","Ongoing",9414603,NA,248,55,80,26,"32%","10%","22%",149,17022,129,126,16602,254,33624,1,NA,NA,-77.02838,38.9631991
1104,"PCS",6,"Center City Capitol Hill","1503 East Capitol Street, SE",280,"ES/MS",40037,4699097,"Facility Allowance",NA,4479816,"Facilities Allowance","Ongoing",9178913,NA,239,0,112,23,"47%","10%","0%",168,16782,117,112,15999,229,32782,1,NA,NA,-76.9835459,38.8897865
1105,"PCS",8,"Center City Congress Heights","220 Highview Place, SE",280,"ES/MS",27000,4770011,"Facility Allowance",NA,4817208,"Facilities Allowance","Ongoing",9587219,NA,257,0,172,19,"67%","7%","0%",105,17036,177,178,17204,355,34240,1,NA,NA,-77.0045487,38.8415048
1106,"PCS",4,"Center City Petworth","510 Webster Street, NW",280,"ES/MS",30825,4949770,"Facility Allowance",NA,4910928,"Facilities Allowance","Ongoing",9860698,NA,262,53,97,19,"37%","7%","20%",118,17678,161,159,17539,320,35217,1,NA,NA,-77.0208684,38.9437731
1107,"PCS",6,"Center City Shaw","711 N Street, NW",280,"ES/MS",29240,4824166,"Facility Allowance",NA,4517304,"Facilities Allowance","Ongoing",9341470,NA,241,34,113,29,"47%","12%","14%",121,17229,165,154,16133,319,33362,1,NA,NA,-77.0224536,38.9074837
1108,"PCS",5,"Center City Trinidad","1217 W  Virginia Avenue, NE",280,"ES/MS",23313,4651663,"Facility Allowance",NA,4423584,"Facilities Allowance","Ongoing",9075247,NA,236,4,132,26,"56%","11%","2%",99,16613,200,190,15799,389,32412,1,NA,NA,-76.991479,38.905386
153,"PCS",6,"Cesar Chavez Capitol Hill","709 12th Street, SE",448,"HS",40000,13525122,"Facility Allowance",NA,6710352,"Facilities Allowance","Ongoing",20235474,NA,358,21,225,70,"63%","20%","6%",112,30190,338,168,14978,506,45168,1,NA,NA,-76.9907031,38.8807813
127,"PCS",1,"Cesar Chavez Chavez Prep","770 Kenyon Street, NW",414,"MS",36059,6096304,"Facility Allowance",NA,6204264,"Facilities Allowance","Ongoing",12300568,NA,331,94,170,48,"51%","15%","28%",109,14725,169,172,14986,341,29712,1,NA,NA,-77.025605,38.929581
102,"PCS",7,"Cesar Chavez Parkside Middle","3702 Hayes Street,  NE",381,"MS",30870,18175850,"Facility Allowance",NA,5679432,"Facilities Allowance","Ongoing",23855282,NA,303,8,204,42,"67%","14%","3%",102,22031,589,184,14907,773,62612,1,NA,NA,-76.9500149,38.9029444
109,"PCS",7,"Cesar Chavez Parkside Upper","3701 Hayes Street,  NE",444,"HS",36015,3379632,"Facility Allowance",NA,6672864,"Facilities Allowance","Ongoing",10052496,NA,356,7,228,40,"64%","11%","2%",101,4097,94,185,15029,279,22641,1,NA,NA,-76.9491059,38.9013653
NA,"PCS",1,"Children's Studio School (Closed 2010)","1301 V Street NW",NA,"CLOSED",48900,2230312,"Facility Allowance",NA,NA,"CLOSED",NA,2230312,NA,NA,NA,NA,NA,NA,NA,NA,NA,NA,NA,0,0,46,NA,0,NA,NA,-77.02962,38.9181286
947,"DCPS",5,"CHOICE Academy at Emery","1720 1st St NE",NA,"ALT",63800,0,"Stabilized",NA,NA,"","",NA,NA,5,0,0,0,"0","0","0",NA,NA,0,0,0,0,0,1,NA,NA,-77.006549,38.9127078
NA,"PCS",2,"City Collegiate (Closed 2010)","3265 S Street NW",NA,"CLOSED",NA,920095,"Facility Allowance",NA,NA,"CLOSED",NA,920095,NA,NA,NA,NA,NA,NA,NA,NA,NA,NA,NA,0,0,0,0,0,NA,NA,-77.0668126,38.9157158
NA,"PCS",5,"City Lights (Closed 2009)","62 T Street NE",NA,"CLOSED",19000,618836,"Facility Allowance",NA,NA,"CLOSED",NA,618836,NA,NA,NA,NA,NA,NA,NA,NA,NA,NA,NA,0,0,33,NA,0,NA,NA,-77.0066585,38.916063
224,"DCPS",1,"Cleveland Elementary","1825 8th St  NW",320,"ES",53000,20270264,"Full Modernization",2004,0,"Systems Renewals","",20270264,"Cardozo EC (6-8)",308,47,137,36,"0.444805194805195","0.116883116883117","0.152597402597403",172,63345,382,0,0,382,63345,1,"Full","Cardozo HS (9-12)",-77.0225898,38.9150577
442,"DCPS",1,"Columbia Hts Ed Campus 6th-12th","3101 16th St  NW",1400,"MS/HS",325218,78652173,"Full Replacement",2006,0,"Systems Renewals","",78652173,"",1384,429,744,153,"0.53757225433526","0.110549132947977","0.309971098265896",235,56180,242,0,0,242,56180,1,"Full","Cardozo HS (9-12)",-77.035464,38.929437
106,"PCS",5,"Community Academy 1st St","1400 1st Street, NW",523,"ES",1e+05,16964506,"Facility Allowance",NA,9803112,"Facilities Allowance","Ongoing",26767618,NA,523,51,272,35,"52%","7%","10%",191,32437,170,98,18744,268,51181,1,NA,NA,-77.0132341,38.9090757
105,"PCS",4,"Community Academy Allison St","1300 Allison Street, NW",590,"ES",55000,16071823,"Facility Allowance",NA,11058960,"Facilities Allowance","Ongoing",27130783,NA,590,213,261,53,"44%","9%","36%",93,27240,292,201,18744,493,45984,1,NA,NA,-77.030868,38.944517
108,"PCS",4,"Community Academy Nicholson St","1351 Nicholson Street, NW",123,"ES/MS",20100,3128675,"Facility Allowance",NA,2305512,"Facilities Allowance","Ongoing",5434187,NA,123,0,43,21,"35%","17%","0%",163,25436,156,115,18744,270,44180,1,NA,NA,-77.031579,38.9604804
158,"PCS",5,"Community Academy Riggs Rd","33 Riggs Road, NE",329,"ES",50600,13706414,"Facility Allowance",NA,6166776,"Facilities Allowance","Ongoing",19873190,NA,329,86,193,18,"59%","5%","26%",154,41661,271,122,18744,393,60405,1,NA,NA,-77.006643,38.9549208
216,"PCS",8,"Community College Prep Academy","2405 Martin Luther King Jr. Avenue, SE",155,"ADULT",11000,1339656,"Facility Allowance",NA,5117112,"Facilities Allowance","Ongoing",6456768,NA,273,0,0,1,"0%","0%","0%",40,8643,122,465,33014,587,41657,1,NA,NA,-76.9927263,38.8628141
455,"DCPS",4,"Coolidge High","6315 5th St  NW",1105,"HS",271300,2537691,"Stabilized",NA,116633000,"Full Modernization","2020",122176717,"",395,50,301,104,"0.762025316455696","0.263291139240506","0.126582278481013",687,2297,9,430,105550,450,110567,1,"Phase 0","Coolidge HS",-77.019874,38.9662526
3069,"PCS",1,"Creative Minds International","3224 16th Street, NW",181,"ES",17976,1282032,"Facility Allowance",NA,3392664,"Facilities Allowance","Ongoing",4674696,NA,181,10,22,48,"12%","27%","6%",99,7083,71,189,18744,260,25827,1,NA,NA,-77.0368058,38.9315518
199,"PCS",1,"DC Bilingual Columbia Rd (Col Hts bldgs)","1420 Columbia Road, NW",364,"ES",50000,9258495,"Facility Allowance",NA,6822816,"Facilities Allowance","Ongoing",16081311,NA,364,180,130,56,"36%","15%","49%",206,25435,185,136,18744,322,44179,1,NA,NA,-77.0332308,38.927174
248,"PCS",1,"DC International School","3220 16th Street, NW",410,"MS",20217,645120,"Facility Allowance",NA,3936240,"Facilities Allowance","Ongoing",4581360,NA,210,26,44,40,"21%","19%","12%",96,1573,32,195,9601,227,11174,1,NA,NA,-77.0367897,38.9313597
1110,"PCS",7,"DC Prep Benning Elementary","100 41st Street, NE",656,"ES",80352,6611687,"Facility Allowance",NA,8284848,"Facilities Allowance","Ongoing",14896535,NA,442,8,231,22,"52%","5%","2%",182,8769,82,103,12629,185,22708,1,NA,NA,-76.9449133,38.890775
218,"PCS",7,"DC Prep Benning Middle","101 41st Street, NE",188,"MS",26784,697944,"Facility Allowance",NA,2849088,"Facilities Allowance","Ongoing",3547032,NA,152,1,67,22,"44%","14%","1%",176,926,26,106,15155,132,18867,1,NA,NA,-76.944288,38.891529
130,"PCS",5,"DC Prep Edgewood Elementary","707 Edgewood Street, NE",440,"ES",50050,10420765,"Facility Allowance",NA,8097408,"Facilities Allowance","Ongoing",18518173,NA,432,20,197,28,"46%","6%","5%",116,23684,208,162,18403,370,42087,1,NA,NA,-76.9955558,38.9241765
196,"PCS",5,"DC Prep Edgewood Middle"," 701 Edgewood Street, NE",314,"MS",39746,7484216,"Facility Allowance",NA,5510736,"Facilities Allowance","Ongoing",12994952,NA,294,1,101,46,"34%","16%","0%",135,23835,188,139,17550,327,41385,1,NA,NA,-76.9959848,38.9247765
3070,"PCS",7,"DC Scholars","5601 East Capitol Street, SE",700,"ES",31000,2641008,"Facility Allowance",NA,7291416,"Facilities Allowance","Ongoing",9932424,NA,389,0,252,38,"65%","10%","0%",80,3773,85,235,10416,320,14189,1,NA,NA,-76.9216306,38.8893227
405,"DCPS",3,"Deal Middle","3815 Fort Dr  NW",1370,"MS",223689,73524856,"Full Modernization",2009,0,"Systems Renewals","",74154641,"",1312,47,99,166,"0.0754573170731707","0.126524390243902","0.0358231707317073",170,53668,329,0,0,332,54127,1,"Full","Wilson HS",-77.0744601,38.953494
234,"PCS",8,"Democracy Prep Congress Heights","3100 Martin Luther King Jr. Avenue, SE",625,"ES",42528,1904640,"Facility Allowance",NA,11621280,"Facilities Allowance","Ongoing",13525920,NA,620,1,436,70,"70%","11%","0%",69,3047,45,273,18594,318,21641,1,NA,NA,-76.9981457,38.8434987
231,"DCPS",7,"Drew Elementary","5600 Eads St  NE",362,"ES",72800,4898637,"Partial Modernization",2010,0,"Systems Renewals","",4938279,"Kelly Miller MS",201,0,166,34,"0.825870646766169","0.169154228855721","0",362,13532,67,0,0,68,13642,1,"Phase I","Woodson HS",-76.9198214,38.8961276
467,"DCPS",5,"Dunbar High","101 N St. NW",1100,"HS",260000,122897293,"Full Replacement",2013,-250000,"Systems Renewals","",125144890,"",653,6,483,198,"0.739663093415008","0.303215926493109","0.00918836140888208",398,111725,473,-1,-227,481,113768,1,"Full","Dunbar HS",-77.013134,38.9078377
195,"PCS",8,"Eagle Academy at McGogney","3400 Wheeler Road, SE",800,"ES",60000,13087929,"Facility Allowance",NA,14507856,"Facilities Allowance","Ongoing",27595785,NA,774,2,466,83,"60%","11%","0%",78,16360,218,242,18135,460,34495,1,NA,NA,-76.9936441,38.8406263
1125,"PCS",6,"Eagle Academy New Jersey Ave","1017 New Jersey Avenue, SE",160,"ES",8500,2897921,"Facility Allowance",NA,2736624,"Facilities Allowance","Ongoing",5634545,NA,146,0,79,11,"54%","8%","0%",58,18112,341,322,17104,663,35216,1,NA,NA,-77.0051215,38.877859
138,"PCS",8,"Early Childhood Academy Johenning","4025 9th Street, SE",162,"ES",15602,5147251,"Facility Allowance",NA,4854696,"Facilities Allowance","Ongoing",10001947,NA,259,0,167,22,"64%","8%","0%",76,29273,304,311,29967,641,61740,1,NA,NA,-76.990566,38.8317414
138,"PCS",8,"Early Childhood Academy Walter Washington","4301 9th Street, SE ",118,"ES",4012,339000,"Facility Allowance",NA,NA,"Facilities Allowance","Ongoing",NA,NA,NA,0,167,22,"64%","8%","0%",76,40189,1182,0,0,0,0,1,NA,NA,-76.989567,38.8310119
457,"DCPS",6,"Eastern High","1700 East Capitol St NE",1100,"HS",310721,74502874,"Full Modernization",2010,0,"Systems Renewals","",74503071,"",1025,3,714,296,"0.696585365853658","0.288780487804878","0.00292682926829268",303,67730,240,0,0,240,67730,1,"Full","Eastern HS",-76.9795263,38.8903247
232,"DCPS",3,"Eaton Elementary","3301 Lowell St  NW",415,"ES",49096,81414,"Stabilized",NA,15552000,"Full Modernization","2021",15633414,"Hardy MS",475,43,26,35,"0.0547368421052632","0.0736842105263158","0.0905263157894737",191,196,2,317,37475,318,37671,1,"Phase 0","Wilson HS",-77.0657958,38.9328813
146,"PCS",1,"EL Haynes Georgia Ave Middle","3600 Georgia Avenue, NW",395,"MS",45484,10299664,"Facility Allowance",NA,7066488,"Facilities Allowance","Ongoing",17366152,NA,377,54,157,77,"42%","20%","14%",121,26075,226,155,17890,382,43965,1,NA,NA,-77.0243669,38.9343788
1206,"PCS",4,"EL Haynes Kansas Ave Elementary","4502 Kansas Avenue, NW",NA,"ES",53800,2661384,"Facility Allowance",NA,6710352,"Facilities Allowance","Ongoing",9371736,NA,358,108,126,39,"35%","11%","30%",150,NA,49,125,0,174,NA,1,NA,NA,-77.0234943,38.9451898
1138,"PCS",4,"EL Haynes Kansas Ave High","4501 Kansas Avenue, NW",795,"HS",17647,5596776,"Facility Allowance",NA,7909968,"Facilities Allowance","Ongoing",13506744,NA,422,66,218,90,"52%","21%","16%",42,7040,317,448,9950,765,16990,1,NA,NA,-77.022371,38.945657
407,"DCPS",6,"Eliot-Hine Middle","1830 Constitution Ave  NE",742,"MS",155072,210957,"Stabilized",NA,40911043,"Full Modernization","2020",42653975,"",257,2,161,63,"0.626459143968872","0.245136186770428","0.00778210116731518",603,284,1,264,55136,275,57485,1,"Phase 0","Eastern HS",-76.978566,38.892612
471,"DCPS",2,"Ellington School of the Arts High","3500 R St NW",500,"HS",258072,34081441,"Stabilized",2015,61688778,"Add/Full Mod","2017",180437856,"",523,5,175,25,"0.334608030592734","0.0478011472275335","0.00956022944550669",320,68163,132,239,123378,699,360876,1,"Full","City-Wide",-77.0704265,38.9131435
159,"PCS",5,"Elsie Whitlow Stokes","3700 Oakview Terrace, NE",350,"ES",32341,11118784,"Facility Allowance",NA,6560400,"Facilities Allowance","Ongoing",17679184,NA,350,63,62,26,"18%","7%","18%",92,31768,344,203,18744,547,50512,1,NA,NA,-76.9899667,38.934916
1113,"PCS",8,"Excel Academy","2501 Martin Luther King Jr. Avenue, SE",867,"ES",67508,8332774,"Facility Allowance",NA,10665336,"Facilities Allowance","Ongoing",18998110,NA,569,0,366,23,"64%","4%","0%",119,9611,123,158,12301,281,21912,1,NA,NA,-76.9952947,38.8600148
1211,"PCS",8,"Excel Academy LEAD","2502 Martin Luther King Jr. Avenue, SE",NA,"MS",19288,476160,"Facility Allowance",NA,2905320,"Facilities Allowance","Ongoing",3381480,NA,155,0,100,27,"65%","17%","0%",124,NA,25,151,0,175,NA,1,NA,NA,-76.9939568,38.8608853
NA,"DCPS",8,"Ferebee Hope (Closed 2013)","3999 8th St. SE",450,"CLOSED",193800,4532419,"Partial Modernization",2009,0,"","",4532419,NA,NA,NA,NA,NA,NA,NA,NA,NA,NA,23,0,0,23,10072,0,NA,NA,NA,NA
409,"DCPS",2,"Francis Stevens Ed Campus","2425 N St  NW",437,"ES/MS",95088,1314689,"Stabilized",NA,20178000,"Partial Modernization","2019",22278000,"",414,25,109,58,"0.263285024154589","0.140096618357488","0.0603864734299517",230,3008,14,212,46174,234,50979,1,"Phase 0","Cardozo HS (9-12)",-77.0521452,38.9076351
361,"PCS",7,"Friendship Blow-Pierce Elementary","725 19th Street, NE",338,"ES",52944,23015084,"Facility Allowance",NA,7103976,"Facilities Allowance","Ongoing",30119060,NA,379,6,289,14,"76%","4%","2%",140,34096,435,134,21018,569,89110,1,NA,NA,-76.976256,38.898544
362,"PCS",7,"Friendship Blow-Pierce Middle","725 19th Street, NE",337,"MS",52944,654336,"Facility Allowance",NA,3992472,"Facilities Allowance","Ongoing",4646808,NA,213,1,147,42,"69%","20%","0%",NA,969,12,75,11847,88,13789,1,NA,NA,-76.976256,38.898544
363,"PCS",6,"Friendship Chamberlain Elementary","1345 Potomac Avenue, SE",760,"ES/MS",80860,27221633,"Facility Allowance",NA,13458192,"Facilities Allowance","Ongoing",40679825,NA,718,1,435,77,"61%","11%","0%",113,35818,337,166,17708,503,53526,1,NA,NA,-76.986715,38.879337
113,"PCS",8,"Friendship Southeast Elementary","645 Milwaukee Place, SE",560,"ES",58539,21108472,"Facility Allowance",NA,10796544,"Facilities Allowance","Ongoing",31905016,NA,576,0,412,56,"72%","10%","0%",102,37694,361,184,19280,545,56973,1,NA,NA,-76.996974,38.847472
1124,"PCS",8,"Friendship Tech Prep","2705 Martin Luther King Jr. Avenue, SE",670,"MS/HS",59125,6129328,"Facility Allowance",NA,9353256,"Facilities Allowance","Ongoing",15482584,NA,499,1,353,90,"71%","18%","0%",133,9148,104,158,13960,262,23108,1,NA,NA,-76.996307,38.848279
365,"PCS",5,"Friendship Woodridge Elementary","2959 Carlton Avenue, NE",665,"ES",74000,21281474,"Facility Allowance",NA,8472288,"Facilities Allowance","Ongoing",29753762,NA,452,9,202,47,"45%","10%","2%",164,32002,561,114,12740,402,44742,1,NA,NA,-76.9662004,38.9294874
186,"PCS",7,"Friendship Woodson Collegiate High","4095 Minnesota Avenue, NE",1200,"HS",152000,43593244,"Facility Allowance",NA,16550952,"Facilities Allowance","Ongoing",60144196,NA,883,0,517,165,"59%","19%","0%",172,36328,287,109,13792,396,50120,1,NA,NA,-76.9459338,38.897574
238,"DCPS",8,"Garfield Elementary","2435 Alabama Ave  SE",365,"ES",58904,1082203,"Stabilized",NA,12583908,"Partial Modernization","2019",14338493,"Johnson MS",284,0,233,35,"0.820422535211268","0.123239436619718","0",207,2965,18,214,34476,243,39284,1,"Phase 0","Ballou HS",-76.9702748,38.8517226
NA,"DCPS",1,"Garnett Patterson (Swing)","2001 10th St NW",400,"MS",82700,5560714,"Stabilized",NA,0,"Swing","",5560714,NA,NA,NA,NA,NA,NA,NA,NA,NA,NA,67,0,0,67,13902,0,NA,NA,-77.0251664,38.9176846
239,"DCPS",2,"Garrison Elementary","1200 S St  NW",356,"ES",60200,655646,"Stabilized",NA,2e+07,"Partial Modernization","2018",2.4e+07,"Cardozo EC (6-8)",244,35,117,40,"0.479508196721311","0.163934426229508","0.14344262295082",247,1842,11,332,56180,399,67416,1,"Phase 0","Cardozo HS (9-12)",-77.028449,38.9138357
227,"DCPS",1,"H.D. Cooke Elementary","2525 17th St NW",440,"ES",85696,32500688,"Full Modernization",2009,0,"Systems Renewals","",32500688,"CHEC (6-8)",400,164,215,42,"0.5375","0.105","0.41",214,73865,379,0,0,379,73865,1,"Full","Cardozo HS (9-12)",-77.0383975,38.9239587
246,"DCPS",2,"Hardy Middle","1819 35th St  NW",485,"MS",107200,50758871,"Full Modernization",2008,0,"Systems Renewals","",50758871,"",386,18,96,57,"0.248704663212435","0.147668393782383","0.0466321243523316",NA,104657,473,0,0,473,104657,1,"Full","Wilson HS",-77.0686338,38.9153226
245,"PCS",5,"Harmony DC","62 T Street, NE",216,"ES",20000,202752,"Facility Allowance",NA,1237104,"Facilities Allowance","Ongoing",1439856,NA,66,0,40,8,"61%","12%","0%",303,939,10,62,5727,72,6666,1,NA,NA,-77.0066585,38.916063
413,"DCPS",8,"Hart Middle","601 Mississippi Ave  SE",912,"MS",210700,13075759,"Partial Modernization",2011,0,"Systems Renewals","",13214760,NA,479,0,393,128,"0.820459290187891","0.267223382045929","0",440,14337,62,0,0,63,14490,1,"Phase I","Ballou HS",-76.9972081,38.8375662
258,"DCPS",3,"Hearst Elementary","3950 37th St  NW",330,"ES",62309,35678706,"Full Modernization",2015,361277,"Systems Renewals","",43433519,"Deal MS",291,28,39,25,"0.134020618556701","0.0859106529209622","0.0962199312714777",214,108117,573,6,1095,697,131617,1,"Full","Wilson HS",-77.0717568,38.9405368
249,"DCPS",8,"Hendley Elementary","425 Chesapeake St  SE",520,"ES",73200,15937127,"Partial Modernization",2013,0,"Systems Renewals","",16150915,"Hart MS",503,0,453,84,"0.900596421471173","0.166998011928429","0",146,30648,218,0,0,221,31059,1,"Phase I","Ballou HS",-76.9991386,38.8286428
131,"PCS",4,"Hope Community Lamond","6200 Kansas Avenue, NE",350,"ES",41000,8800358,"Facility Allowance",NA,6710352,"Facilities Allowance","Ongoing",15510710,NA,358,13,148,22,"41%","6%","4%",115,25144,215,164,19172,378,44316,1,NA,NA,-77.0085903,38.9658162
114,"PCS",5,"Hope Community Tolson","2917 8th Street, NE",560,"ES/MS",33571,10181755,"Facility Allowance",NA,9690648,"Facilities Allowance","Ongoing",19872403,NA,517,34,264,43,"51%","8%","7%",65,18182,303,289,17305,592,35486,1,NA,NA,-76.9946003,38.927028
NA,"PCS",1,"Hospitality High (Closed 2014)","1851 9th Street NW",NA,"CLOSED",29300,5810972,"Facility Allowance",NA,NA,"CLOSED",NA,5810972,NA,NA,NA,NA,NA,NA,NA,NA,NA,NA,NA,0,0,198,NA,0,NA,NA,-77.0236584,38.9153791
251,"DCPS",7,"Houston Elementary","1100 50th Pl  NE",398,"ES",59896,1191032,"Stabilized",NA,15693000,"Partial Modernization","2017",16943000,"Kelly Miller MS",279,3,209,40,"0.74910394265233","0.14336917562724","0.010752688172043",215,2993,20,262,39430,283,42570,1,"Phase 0","Woodson HS",-76.9302932,38.9054178
NA,"PCS",8,"Howard Road Academy (Closed 2013)","701 Howard Road SE",NA,"CLOSED",31000,10909039,"Facility Allowance",NA,NA,"CLOSED",NA,10909039,NA,NA,NA,NA,NA,NA,NA,NA,NA,NA,NA,0,0,352,NA,0,NA,NA,-76.999207,38.8641137
NA,"PCS",7,"Howard Road Academy G St (Closed 2013)","4625 G St SE",NA,"CLOSED",NA,3344491,"Facility Allowance",NA,NA,"CLOSED",NA,3344491,NA,NA,NA,NA,NA,NA,NA,NA,NA,NA,NA,0,0,0,0,0,NA,NA,-76.9346599,38.880396
NA,"PCS",8,"Howard Road Academy MLK Ave (Closed 2013)","2405 ML King Ave SE",NA,"CLOSED",11000,4414369,"Facility Allowance",NA,NA,"CLOSED",NA,4414369,NA,NA,NA,NA,NA,NA,NA,NA,NA,NA,NA,0,0,401,NA,0,NA,NA,-76.9927263,38.8628141
NA,"PCS",7,"Howard Road Academy Penn Ave (Closed 2013)","3000 Pennsylvania Ave SE",NA,"CLOSED",NA,5256099,"Facility Allowance",NA,NA,"CLOSED",NA,5256099,NA,NA,NA,NA,NA,NA,NA,NA,NA,NA,NA,0,0,0,0,0,NA,NA,-76.9638478,38.8711371
115,"PCS",1,"Howard U Middle School of Math & Science","405 Howard Place, NW",360,"MS",20968,8215644,"Facility Allowance",NA,5510736,"Facilities Allowance","Ongoing",13726380,NA,294,11,115,9,"39%","3%","4%",71,22821,392,263,15308,655,38129,1,NA,NA,-77.0188757,38.9228511
252,"DCPS",2,"Hyde-Addison Elementary","3219 O St  NW",330,"ES",37504,19157333,"Partial Modernization",2014,22284976,"Full Modernization","2017",43519223,"Hardy MS",305,29,24,25,"0.0786885245901639","0.0819672131147541","0.0950819672131148",123,58053,511,594,67530,1160,131876,1,"Phase I","Wilson HS",-77.0648106,38.9081992
163,"PCS",7,"IDEA","1027 45th Street, NE",450,"HS",70000,13450019,"Facility Allowance",NA,4067448,"Facilities Allowance","Ongoing",17517467,NA,217,1,165,42,"76%","19%","0%",323,29889,192,58,9039,250,38928,1,NA,NA,-76.937087,38.904173
134,"PCS",4,"Ideal Academy N Capitol St","6130 N Capitol Street, NW",372,"ES/MS",35090,10624686,"Facility Allowance",NA,5566968,"Facilities Allowance","Ongoing",16191654,NA,297,3,185,32,"62%","11%","1%",118,28561,303,159,14965,461,43526,1,NA,NA,-77.0098236,38.9648647
NA,"PCS",4,"Ideal Academy Peabody St (Closed)","100 Peabody Street NW",NA,"CLOSED",NA,1512212,"Facility Allowance",NA,NA,"CLOSED",NA,1512212,NA,NA,NA,NA,NA,NA,NA,NA,NA,NA,NA,0,0,0,0,0,NA,NA,-77.0126091,38.9623344
NA,"PCS",8,"Imagine Southeast (Closed 2014)","3100 ML King Ave SE",NA,"CLOSED",42528,7943598,"Facility Allowance",NA,NA,"CLOSED",NA,7943598,NA,NA,NA,NA,NA,NA,NA,NA,NA,NA,NA,0,0,187,NA,0,NA,NA,-76.9981457,38.8434987
200,"PCS",8,"Ingenuity Prep","4600 Livingston Road, SE",319,"ES",31075,941472,"Facility Allowance",NA,3767544,"Facilities Allowance","Ongoing",4709016,NA,201,0,148,22,"74%","11%","0%",155,2951,30,121,11810,152,14762,1,NA,NA,-77.0031886,38.8239325
3064,"PCS",5,"Inspired Teaching","200 Douglas Street, NE",516,"ES/MS",40800,2824824,"Facility Allowance",NA,5941848,"Facilities Allowance","Ongoing",8766672,NA,317,14,35,34,"11%","11%","4%",129,5474,69,146,11515,215,16990,1,NA,NA,-77.0025452,38.9236743
339,"DCPS",6,"J.O. Wilson Elementary","660 K Street NE",480,"ES",98896,4264356,"Partial Modernization",2010,0,"Systems Renewals","",4264356,"Stuart-Hobson MS",466,6,232,47,"0.497854077253219","0.100858369098712","0.0128755364806867",212,8884,43,0,0,43,8884,1,"Phase I","Eastern HS",-76.9969383,38.9029977
254,"DCPS",3,"Janney Elementary","4130 Albemarle St  NW",700,"ES",96083,37443325,"Full Modernization",2011,0,"Systems Renewals","",37949758,"Deal MS",693,30,8,38,"0.0115440115440115","0.0548340548340548","0.0432900432900433",139,53490,390,0,0,395,54214,1,"Full","Wilson HS",-77.0812196,38.9474491
433,"DCPS",6,"Jefferson Middle","801 7th St SW",570,"MS",108992,0,"Stabilized",NA,35993000,"Full Modernization","2020",35993000,"",277,3,179,64,"0.646209386281588","0.231046931407942","0.0108303249097473",NA,0,0,330,63146,330,63146,1,"Phase 0","Eastern HS",-77.0229317,38.8798501
NA,"PCS",5,"Jo-Arz Academy (Closed 2006)","220 Taylor Street NE",NA,"CLOSED",NA,393584,"Facility Allowance",NA,NA,"CLOSED",NA,393584,NA,NA,NA,NA,NA,NA,NA,NA,NA,NA,NA,0,0,0,0,0,NA,NA,-77.0036779,38.941395
416,"DCPS",8,"Johnson Middle","1400 Bruce Pl  SE",730,"MS",182496,18602234,"Partial Modernization",2013,-5857,"Systems Renewals","",20521528,NA,291,3,229,103,"0.786941580756014","0.353951890034364","0.0103092783505155",627,25483,102,0,-8,112,28112,1,"Phase I","Ballou HS",-76.9836523,38.8511843
NA,"PCS",4,"KAMIT Institute (Closed 2010)","100 Peabody Street NW",NA,"CLOSED",NA,3537694,"Facility Allowance",NA,NA,"CLOSED",NA,3537694,NA,NA,NA,NA,NA,NA,NA,NA,NA,NA,NA,0,0,0,0,0,NA,NA,-77.0126091,38.9623344
421,"DCPS",7,"Kelly Miller Middle","301 49th St  NE",600,"MS",114992,34578507,"Full Replacement",2004,0,"Systems Renewals","",34578507,"",546,7,382,146,"0.6996336996337","0.267399267399267","0.0128205128205128",211,57631,301,0,0,301,57631,1,"Full","Woodson HS",-76.9321175,38.8933117
257,"DCPS",8,"Ketcham Elementary","1919 15th St  SE",325,"ES",88288,8328691,"Partial Modernization",2012,0,"Systems Renewals","",8336451,"Kramer MS",309,0,265,37,"0.857605177993528","0.119741100323625","0",286,25627,94,0,0,94,25651,1,"Phase I","Anacostia HS",-76.9836485,38.8660524
272,"DCPS",3,"Key Elementary","5001 Dana Pl  NW",364,"ES",50000,13007488,"Full Modernization",2003,0,"Systems Renewals","",13007488,"Hardy MS",383,28,12,27,"0.031331592689295","0.0704960835509138","0.0731070496083551",131,35735,260,0,0,260,35735,1,"Full","Wilson HS",-77.100542,38.926599
259,"DCPS",7,"Kimball Elementary","3375 Minnesota Ave  SE",398,"ES",83392,0,"Stabilized",NA,17696000,"Full Modernization","2016",17696000,"Sousa MS",348,0,268,48,"0.770114942528736","0.137931034482759","0",240,0,0,212,44462,212,44462,1,"Phase 0","Anacostia HS",-76.9575142,38.8828821
344,"DCPS",8,"King, M.L. Elementary","3200 6th St  SE",444,"ES",65496,4118755,"Partial Modernization",2010,372458,"Systems Renewals","",6567738,"Hart MS",372,2,327,55,"0.879032258064516","0.147849462365591","0.00537634408602151",176,9276,63,6,839,100,14792,1,"Phase 0","Ballou HS",-76.9980914,38.8425064
NA,"PCS",8,"KIPP-AIM/Discover/Hts","2600 Douglass Place, SE",1300,"ES/MS",137700,16736533,"Facility Allowance",NA,19981104,"Facilities Allowance","Ongoing",36717637,NA,1066,1,621,153,"58%","14%","0%",129,12874,122,145,15370,267,28244,2,NA,NA,-76.9913927,38.8566681
NA,"PCS",8,"KIPP-Arts & Tech/Quest","5300 Blaine Street, NE",600,"ES",67375,1517568,"Facility Allowance",NA,9259536,"Facilities Allowance","Ongoing",10777104,NA,494,2,305,57,"62%","12%","0%",136,2529,23,137,15433,160,17962,2,NA,NA,-76.9258818,38.8917411
1123,"PCS",5,"KIPP-College Prep","1401 Brentwood Parkway, NE",900,"HS",187423,5814288,"Facility Allowance",NA,8509776,"Facilities Allowance","Ongoing",14324064,NA,454,0,232,86,"51%","19%","0%",413,6460,31,45,9455,76,15916,1,NA,NA,-76.9944198,38.909317
NA,"PCS",5,"KIPP-Connect/NE/Spring","1375 Mt Olivet Road, NE",1000,"ES/MS",67000,2537088,"Facility Allowance",NA,9915576,"Facilities Allowance","Ongoing",12452664,NA,529,3,289,48,"55%","9%","1%",127,2537,38,148,9916,186,12453,2,NA,NA,-76.9814619,38.907437
NA,"PCS",7,"KIPP-KEY/LEAP/Promise","4801 Benning Road, SE",1000,"",84681,22962320,"Facility Allowance",NA,19456272,"Facilities Allowance","Ongoing",42418592,NA,1038,4,557,111,"54%","11%","0%",82,22962,271,230,19456,501,42419,NA,NA,NA,-76.9343991,38.8826376
NA,"PCS",6,"KIPP-GROW/LEAD/WILL","421 P Street, NW",1000,"ES/MS",100671,13246127,"Facility Allowance",NA,17956752,"Facilities Allowance","Ongoing",31202879,NA,958,10,405,110,"42%","11%","1%",105,13246,132,178,17957,310,31203,2,NA,NA,-77.018128,38.909942
417,"DCPS",8,"Kramer Middle","1700 Q St  SE",600,"MS",153984,30951777,"Partial Modernization",2014,0,"Systems Renewals","",35059047,NA,333,0,267,110,"80%","33%","0%",462,51586,201,0,0,228,58432,1,"Phase I","Anacostia HS",-76.9799006,38.8717022
261,"DCPS",4,"Lafayette Elementary","5701 Broad Branch Rd  NW",516,"ES",113600,9939007,"Stabilized",2015,59373105,"Add/Full Mod","2016",78650000,"Deal MS",697,21,19,47,"3%","7%","3%",163,19262,87,523,115064,692,152422,1,"Full","Wilson HS",-77.0679076,38.9664459
193,"PCS",4,"LAMB Missouri Ave","1375 Missouri Avenue, NW",175,"ES",16468,NA,"Facility Allowance",NA,NA,"Facilities Allowance","Ongoing",NA,NA,NA,129,40,38,"12%","11%","38%",107,34577,367,0,0,0,0,1,NA,NA,-77.0323824,38.9622483
193,"PCS",5,"LAMB Perry St","1800 Perry Street, NE",200,"ES",20200,6050898,"Facility Allowance",NA,6410448,"Facilities Allowance","Ongoing",12461346,NA,342,129,40,38,"12%","11%","38%",107,30254,300,317,32052,617,62307,1,NA,NA,-76.9783016,38.9363691
NA,"PCS",5,"LAMB Taylor St. (Closed)","1600 Taylor Street NE",NA,"CLOSED",NA,237000,"Facility Allowance",NA,NA,"CLOSED",NA,237000,NA,NA,NA,NA,NA,NA,NA,NA,NA,NA,NA,0,0,0,0,0,NA,NA,-76.9823945,38.9410802
262,"DCPS",5,"Langdon Elementary","1900 Evarts St  NE",500,"ES",101392,19828246,"Partial Modernization",2015,0,"Systems Renewals","",20824380,"McKinley MS",340,17,191,56,"56%","16%","5%",298,39656,196,0,0,205,41649,1,"Phase I","Dunbar HS",-76.9774768,38.9249969
370,"DCPS",5,"Langley Elementary","101 T Street NE",530,"ES",1e+05,10253618,"Partial Modernization",2011,0,"Systems Renewals","",10273670,"McKinley MS",297,3,185,44,"62%","15%","1%",337,19346,103,0,0,103,19384,1,"Phase II","Dunbar HS",-77.005475,38.914235
264,"DCPS",4,"LaSalle-Backus Ed Campus","501 Riggs Road NE",400,"ES/MS",63000,14206295,"Partial Modernization",2012,0,"Systems Renewals","",14545500,"",349,106,183,50,"52%","14%","30%",181,35516,225,0,0,231,36364,1,"Phase I","Coolidge HS",-76.9997759,38.9597849
104,"PCS",1,"Latin Am Youth Cntr Career Academy","3047 15th Street, NW",225,"ALT",15500,3701585,"Facility Allowance",NA,3561360,"Facilities Allowance","Ongoing",7262945,NA,190,36,0,6,"0%","3%","19%",82,16451,239,230,15828,469,32280,1,NA,NA,-77.0357768,38.9285225
266,"DCPS",8,"Leckie Elementary","4201 M L  King Ave  SW",480,"ES",65000,595860,"Partial Modernization",2012,0,"Systems Renewals","",595860,"Hart MS",478,8,226,53,"47%","11%","2%",136,1241,9,0,0,9,1241,1,"Phase I","Ballou HS",-77.0132599,38.8282308
228,"PCS",5,"Lee Montessori","301 Douglas Street, NE",135,"ES",13200,227328,"Facility Allowance",NA,1387056,"Facilities Allowance","Ongoing",1614384,NA,74,0,10,5,"14%","7%","0%",178,1684,17,105,10274,122,11958,1,NA,NA,-77.0020396,38.9234284
271,"DCPS",6,"Ludlow-Taylor Elementary","659 G St  NE",362,"ES",66896,11489803,"Partial Modernization",2013,-1026290,"Systems Renewals","",11762825,"Stuart-Hobson MS",340,3,109,31,"32%","9%","1%",197,31740,172,-15,-2835,176,32494,1,"Phase I","Eastern HS",-76.9963992,38.8985144
884,"DCPS",5,"Luke Moore High","1001 Monroe St NE",350,"ALT",65528,16352780,"Full Modernization",2006,0,"Systems Renewals","",16352780,"",350,2,0,41,"0%","12%","1%",187,46722,250,0,0,250,46722,1,"Full","City-Wide",-76.992102,38.93199
NA,"DCPS",4,"Macfarland Middle (Swing)","4400 Iowa Ave NW",550,"MS",11000,874564,"Stabilized",NA,50026000,"Modernization","2018",53650564,NA,NA,NA,NA,NA,NA,NA,NA,NA,NA,80,4548,90956,4877,97546,0,NA,NA,-77.0273427,38.9439461
NA,"DCPS",8,"Malcolm X Elementary  (Closed 2013)","1351 Alabama Ave SE",400,"CLOSED",110800,0,"Stabilized",NA,0,NA,"",0,NA,NA,NA,NA,NA,NA,NA,NA,NA,NA,0,0,0,0,0,0,NA,NA,-76.986448,38.844475
308,"DCPS",8,"Malcolm X Elementary at Green","1500 Mississippi Ave. SE Washington",248,"ES",77700,0,"Stabilized",NA,0,"Systems Renewals","",52963,"Johnson MS",244,0,207,34,"0.848360655737705","0.139344262295082","0",NA,0,0,0,0,1,214,1,"Phase 0","Ballou HS",-76.9836028,38.8416964
265,"DCPS",5,"Mamie D Lee Sp Ed (Closed 2015)","100 Galatin St NE",0,"SPED",45800,757876,"Stabilized",NA,0,"Systems Renewals","",757876,NA,56,4,29,0,"0.517857142857143","0","0.0714285714285714",1438,6316,17,0,0,17,NA,1,NA,NA,-77.0072498,38.9529268
273,"DCPS",3,"Mann Elementary","4430 Newark St NW",370,"ES",60969,34565362,"Full Modernization",2015,-5e+05,"Systems Renewals","",37197238,"Hardy MS",302,34,4,12,"0.0132450331125828","0.0397350993377483","0.112582781456954",202,93420,567,-8,-1351,610,100533,1,"Full","Wilson HS",-77.087418,38.934026
284,"DCPS",1,"Marie Reed Elementary","2201 18th St. NW",470,"ES",162688,2970097,"Stabilized",2015,54503000,"Add/Full Mod","2017",64904196,"Col Hts. Ed. Campus (6-8)",393,189,143,41,"0.363867684478371","0.104325699745547","0.480916030534351",414,6319,18,335,115964,399,138094,1,"Phase 0","Cardozo HS (9-12)",-77.0416361,38.9183938
NA,"DCPS",5,"Marshall PK3-8th (Closed 2013)","3100 Fort Lincoln Drive SE",400,"CLOSED",103800,0,"Stabilized",NA,0,NA,"",0,NA,NA,NA,NA,NA,NA,NA,NA,NA,NA,0,0,0,0,0,0,NA,NA,-76.9575343,38.9272794
NA,"PCS",7,"Mary McLeod Bethune 42nd St (Closed)","253 42nd Street NE",NA,"CLOSED",NA,691425,"Facility Allowance",NA,NA,"CLOSED",NA,691425,NA,NA,NA,NA,NA,NA,NA,NA,NA,NA,NA,0,0,0,0,0,NA,NA,-76.9425858,38.894125
135,"PCS",5,"Mary McLeod Bethune Academy Jackson St","1404 Jackson Street, NE",500,"ES/MS",56927,6686938,"Facility Allowance",NA,7141464,"Facilities Allowance","Ongoing",13828402,NA,381,8,237,35,"62%","9%","2%",149,13374,117,125,14283,243,27657,1,NA,NA,-76.9863281,38.9295686
NA,"PCS",4,"Mary McLeod Bethune Crestwood (Closed)","5413 16th Street NW",NA,"CLOSED",NA,843148,"Facility Allowance",NA,NA,"CLOSED",NA,843148,NA,NA,NA,NA,NA,NA,NA,NA,NA,NA,NA,0,0,0,0,0,NA,NA,-77.035698,38.9558097
274,"DCPS",6,"Maury Elementary","1250 Constitution Ave NE",300,"ES",46800,6444395,"Partial Modernization",2011,5044000,"Full Modernization","2016",12620745,"Eliot-Hine MS",366,2,48,23,"0.131147540983607","0.0628415300546448","0.00546448087431694",128,21481,138,108,16813,270,42069,1,"Phase I","Eastern HS",-76.9886668,38.8921729
101,"PCS",7,"Maya Angelou Evans Campus","5600 E Capitol Street, NE",450,"ALT",78625,11218068,"Facility Allowance",NA,4723488,"Facilities Allowance","Ongoing",15941556,NA,252,0,0,88,"0%","35%","0%",312,24929,143,60,10497,203,35426,1,NA,NA,-76.9199181,38.8902854
NA,"PCS",1,"Maya Angelou Shaw Campus (Closed)","1851 9th Street NW",NA,"CLOSED",29300,2571219,"Facility Allowance",NA,NA,"CLOSED",NA,2571219,NA,NA,NA,NA,NA,NA,NA,NA,NA,NA,NA,0,0,88,NA,0,NA,NA,-77.0236584,38.9153791
137,"PCS",7,"Maya Angelou Young Adult Learning Cntr","5600 E Capitol Street, NE",450,"ADULT",47175,1144584,"Facility Allowance",NA,2755368,"Facilities Allowance","Ongoing",3899952,NA,147,0,1,17,"1%","12%","0%",321,2544,24,58,6123,83,8667,1,NA,NA,-76.9199181,38.8902854
NA,"DCPS",8,"MC Terrell Elementary (Closed 2013)","3301 Wheeler Rd. SE",NA,"CLOSED",112000,1706121,"Stabilized",NA,0,NA,"",1706121,NA,NA,NA,NA,NA,NA,NA,NA,NA,NA,15,0,0,15,NA,0,NA,NA,NA,NA
435,"DCPS",5,"McKinley Middle","151 T St NE",340,"MS",62000,1.5e+07,"Full Modernization",2014,NA,"Systems Renewals","",1.5e+07,"",202,5,119,31,"0.589108910891089","0.153465346534653","0.0247524752475248",307,44118,242,0,0,242,44118,1,"Full","Dunbar HS",-77.004889,38.9145641
458,"DCPS",5,"McKinley Technology High","151 T St NE",1160,"HS",282200,77382544,"Full Modernization",2004,0,"Systems Renewals","",77443210,"",645,6,239,12,"0.370542635658915","0.0186046511627907","0.00930232558139535",438,66709,274,0,0,274,66761,1,"Full","City-Wide",-77.004889,38.9145641
NA,"PCS",4,"MEI Futures (Closed 2009)","6000 New Hampshire Ave NE",NA,"CLOSED",NA,357535,"Facility Allowance",NA,NA,"CLOSED",NA,357535,NA,NA,NA,NA,NA,NA,NA,NA,NA,NA,NA,0,0,0,0,0,NA,NA,-77.005051,38.963848
165,"PCS",1,"Meridian","2120 13th Street, NW",718,"ES/MS",61900,20265712,"Facility Allowance",NA,11977416,"Facilities Allowance","Ongoing",32243128,NA,639,176,294,77,"46%","12%","28%",97,28225,327,193,16682,521,44907,1,NA,NA,-77.0299375,38.9185351
280,"DCPS",6,"Miner Elementary","601 15th St  NE",550,"ES",76896,6391359,"Full Replacement",2003,0,"Systems Renewals","",6391359,"Eliot-Hine MS",398,7,296,66,"0.743718592964824","0.165829145728643","0.0175879396984925",193,11621,83,0,0,83,11621,1,"Full","Eastern HS",-76.9829046,38.8979598
NA,"DCPS",6,"Montgomery ES (Closed 20010)","421 P St NW",NA,"CLOSED",73700,6934511,"Stabilized",NA,0,NA,"",6934511,NA,NA,NA,NA,NA,NA,NA,NA,NA,NA,94,0,0,94,NA,0,NA,NA,NA,NA
285,"DCPS",8,"Moten Elementary","1565 Morris Rd SE",480,"ES",99696,27716993,"Full Modernization",2012,0,"Systems Renewals","",27856881,"Kramer MS",395,0,348,65,"0.881012658227848","0.164556962025316","0",252,57744,278,0,0,279,58035,1,"Full","Anacostia HS",-76.9828753,38.8564345
3065,"PCS",5,"Mundo Verde Bilingual","30 P Street, NW",568,"ES",36148,3140088,"Facility Allowance",NA,7572576,"Facilities Allowance","Ongoing",10712664,NA,404,84,57,22,"14%","5%","21%",89,5528,87,209,13332,296,18860,1,NA,NA,-77.0103408,38.9092812
287,"DCPS",3,"Murch Elementary","4810 36th St  NW",488,"ES",47696,748083,"Stabilized",2015,63156000,"Add/Full Mod","2018",68294774,"Deal MS",620,56,18,23,"0.0290322580645161","0.0370967741935484","0.0903225806451613",77,1533,16,1324,129418,1432,139948,1,"Phase 0","Wilson HS",-77.0704556,38.9527132
288,"DCPS",7,"Nalle Elementary","219 50th St  SE",400,"ES",83900,11521407,"Partial Modernization",2012,0,"Systems Renewals","",11570572,"Kelly Miller MS",384,6,295,45,"0.768229166666667","0.1171875","0.015625",218,28804,137,0,0,138,28926,1,"Phase I","Woodson HS",-76.9311143,38.8860027
1120,"PCS",8,"National Collegiate Prep","4600 Livingston Road, SE",319,"HS",50000,4199632,"Facility Allowance",NA,5735664,"Facilities Allowance","Ongoing",9935296,NA,306,0,213,40,"70%","13%","0%",163,13165,84,115,17980,199,31145,1,NA,NA,-77.0031886,38.8239325
NA,"PCS",5,"New School (Closed 2006)","1920 Bladensburg Road NE",NA,"CLOSED",49116,4109909,"Facility Allowance",NA,NA,"CLOSED",NA,4109909,NA,NA,NA,NA,NA,NA,NA,NA,NA,NA,NA,0,0,84,NA,0,NA,NA,-76.9737654,38.9164261
NA,"PCS",4,"New Vistas Prep (Closed 1999)","100 Peabody Street NW",NA,"CLOSED",NA,353492,"Facility Allowance",NA,NA,"CLOSED",NA,353492,NA,NA,NA,NA,NA,NA,NA,NA,NA,NA,NA,0,0,0,0,0,NA,NA,-77.0126091,38.9623344
NA,"PCS",8,"Nia Community (Closed 2011)","3845 South Capitol Street SW",NA,"CLOSED",NA,2482515,"Facility Allowance",NA,NA,"CLOSED",NA,2482515,NA,NA,NA,NA,NA,NA,NA,NA,NA,NA,NA,0,0,0,0,0,NA,NA,-77.0088402,38.8341523
290,"DCPS",5,"Noyes Elementary","2725 10th St  NE",391,"ES",51496,24719301,"Full Modernization",2004,0,"Systems Renewals","",24719301,"Brookland MS",289,11,182,44,"0.629757785467128","0.152249134948097","0.0380622837370242",178,63221,480,0,0,480,63221,1,"Full","Dunbar HS",-76.9915985,38.9250297
169,"PCS",6,"Options","1375 E Street, NE",268,"MS/HS",66622,9184284,"Facility Allowance",NA,5023392,"Facilities Allowance","Ongoing",14207676,NA,268,0,218,168,"81%","63%","0%",249,34270,138,75,18744,213,53014,1,NA,NA,-76.986356,38.895719
NA,"PCS",6,"Options Satillite Campus (Closed)","702 15th Street NE",NA,"CLOSED",NA,756800,"Facility Allowance",NA,NA,"CLOSED",NA,756800,NA,NA,NA,NA,NA,NA,NA,NA,NA,NA,NA,0,0,0,0,0,NA,NA,-76.983992,38.899216
291,"DCPS",8,"Orr Elementary","2200 Minnesota Ave  SE",392,"ES",75900,0,"Stabilized",NA,41995000,"Full Modernization","",44995000,"Kramer MS",384,2,295,54,"0.768229166666667","0.140625","0.00520833333333333",198,0,0,553,107130,593,114783,1,"Phase 0","Anacostia HS",-76.974441,38.8720446
292,"DCPS",1,"Oyster-Adams, Adams Ed Campus","2020 19th St. NW",324,"MS",59400,3803375,"Stabilized",NA,12236000,"Partial Modernization","2019",16039375,NA,314,NA,NA,NA,NA,NA,NA,NA,11739,64,206,37765,270,49504,1,"Phase 0","Wilson HS",-77.0443928,38.9172561
292,"DCPS",3,"Oyster-Adams, Oyster Ed Campus","2801 Calvert St NW",350,"ES",47984,1.1e+07,"Full Replacement",2001,0,"Systems Renewals","",1.1e+07,NA,263,NA,NA,NA,NA,NA,NA,NA,0,0,0,0,229,31429,1,"Full","Wilson HS",-77.0572024,38.9235663
294,"DCPS",8,"Patterson Elementary","4399 South Capitol Terr  SW",382,"ES",76896,32570942,"Full Replacement",2004,0,"Systems Renewals","",5365870,"Hart MS",380,1,323,44,"0.85","0.115789473684211","0.00263157894736842",202,85264,424,0,0,70,14047,1,"Full","Ballou HS",-77.0081965,38.8267436
NA,"PCS",4,"Paul Public Charter Middle /High","5800 8th Street, NW",700,"MS/HS",127988,22873214,"Facility Allowance",NA,13139544,"Facilities Allowance","Ongoing",36012758,NA,701,NA,NA,NA,"0%","0%","0%",32629.41,32676,179,103,18771,281,51447,1,NA,NA,-77.0248615,38.9613283
295,"DCPS",6,"Payne Elementary","1445 C St SE",348,"ES",83792,22389213,"Stabilized",2015,27450,"Add/Full Mod","2016",27815086,"Eliot-Hine MS",277,5,165,30,"0.595667870036101","0.108303249097473","0.0180505415162455",302,64337,267,0,79,332,79928,1,"Full","Eastern HS",-76.984559,38.884501
301,"DCPS",6,"Peabody Elementary","425 C St  NE",228,"ES",37800,7028816,"Partial Modernization",2013,0,"Systems Renewals","",7099258,"Stuart-Hobson MS",227,4,16,10,"0.0704845814977974","0.0440528634361234","0.0176211453744493",167,30828,186,0,0,188,31137,1,"Phase I","Eastern HS",-76.9998748,38.8928043
161,"PCS",5,"Perry Street Prep","1800 Perry Street, NE",200,"ES/MS",171000,28592629,"Facility Allowance",NA,11602536,"Facilities Allowance","Ongoing",40195165,NA,619,10,343,93,"55%","15%","2%",276,142963,167,68,58013,235,200976,1,NA,NA,-76.9783016,38.9363691
478,"DCPS",5,"Phelps ACE High","704 26th Street NE",512,"HS",146976,66594065,"Full Modernization",2008,0,"Systems Renewals","",32570942,"",323,9,166,42,"0.513931888544892","0.130030959752322","0.0278637770897833",455,130067,453,0,0,222,63615,1,"Full","City-Wide",-76.9721088,38.9020565
299,"DCPS",7,"Plummer Elementary","4601 Texas Ave  SE",448,"ES",69392,13846933,"Partial Modernization",2014,26191,"Systems Renewals","",14299544,"Sousa MS",428,24,354,54,"0.827102803738318","0.126168224299065","0.0560747663551402",162,30908,200,0,58,206,31919,1,"Phase I","Anacostia HS",-76.9396434,38.88707
117,"PCS",5,"Potomac Prep","4401 8th Street, NE",525,"ES/MS",42016,7783669,"Facility Allowance",NA,7966200,"Facilities Allowance","Ongoing",15749869,NA,425,0,261,50,"61%","12%","0%",99,14826,185,190,15174,375,30000,1,NA,NA,-76.9944091,38.9430337
300,"DCPS",4,"Powell Elementary","1350 Upshur St  NW",304,"ES",76848,25490976,"Stabilized",2015,2504026,"Add/Full Mod","2016",44744174,"Col. Hts. EC (6-8)",446,250,202,57,"0.452914798206278","0.12780269058296","0.560538116591928",172,83852,332,33,8237,582,147185,1,"Full","Cardozo HS (9-12)",-77.031615,38.941504
NA,"DCPS",8,"PR Harris PK3-8th (Closed 2008)","4600 Livingston Rd SE",NA,"CLOSED",348700,700,"Stabilized",NA,0,NA,"",700,NA,NA,NA,NA,NA,NA,NA,NA,NA,NA,0,0,0,0,NA,0,NA,NA,-77.0031886,38.8239325
316,"DCPS",7,"Randle Highlands Elementary","1650 30th St  SE",450,"ES",72476,21543183,"Full Replacement",2002,0,"Systems Renewals","",8391223,"Sousa MS",360,3,228,49,"0.633333333333333","0.136111111111111","0.00833333333333333",201,47874,297,0,0,116,18647,1,"Full","Anacostia HS",-76.9638892,38.870144
302,"DCPS",4,"Raymond Ed Campus","915 Spring Rd  NW",615,"ES/MS",73600,0,"Stabilized",NA,19567000,"Partial Modernization","2019",19567000,"",581,245,308,96,"0.530120481927711","0.165232358003442","0.421686746987952",127,0,0,266,31816,266,31816,1,"Phase 0","Roosevelt HS",-77.0261699,38.9359279
NA,"DCPS",6,"RH Terrell PK3-8th (Demolished 2006)","1000 1st St NW",NA,"CLOSED",143700,1446215,"Stabilized",NA,0,NA,"",1446215,NA,NA,NA,NA,NA,NA,NA,NA,NA,NA,10,0,0,10,NA,0,NA,NA,-77.0121753,38.9025237
NA,"PCS",7,"Richard Milburn Academy (Closed 2002)","1027 45th Street NE",NA,"CLOSED",70000,743930,"Facility Allowance",NA,NA,"CLOSED",NA,743930,NA,NA,NA,NA,NA,NA,NA,NA,NA,NA,NA,0,0,11,NA,0,NA,NA,-76.937087,38.904173
3067,"PCS",6,"Richard Wright Journalism & Media Arts","770 M Street SE",400,"MS/HS",28000,2883960,"Facility Allowance",NA,5716920,"Facilities Allowance","Ongoing",8600880,NA,305,1,225,58,"74%","19%","0%",92,7210,103,204,14292,307,21502,1,NA,NA,-76.995574,38.877003
NA,"DCPS",7,"River Terrace Special Ed Center","420 34th St NE",180,"SPED",77707,32133707,"Full Modernization",2015,-2200000,"Systems Renewals","",35717175,NA,NA,NA,NA,NA,NA,NA,NA,NA,178521,414,-28,-12222,460,198429,1,"Full",NA,-76.9575223,38.8949506
NA,"DCPS",7,"Ron Brown","4800 Meade St NE",500,"HS",156000,0,"Stabilized",2015,44597000,"Full Modernization","2017",47347000,NA,NA,NA,NA,NA,NA,NA,NA,NA,0,0,286,89194,304,94694,0,NA,"City-Wide",-76.9326919,38.9067948
459,"DCPS",4,"Roosevelt High","4301 13th St NW",1030,"HS",331840,117015598,"Add/Full Mod",2016,1887406,"Systems Renewals","",143557836,"",476,143,394,141,"0.827731092436975","0.296218487394958","0.300420168067227",697,113607,353,6,1832,433,139377,1,"Full","Roosevelt HS",-77.0278294,38.9433952
456,"DCPS",4,"Roosevelt STAY","4301 13th St NW",NA,"ADULT",NA,0,"Full Modernization",2015,0,"Systems Renewals","",NA,"",802,11,0,49,"0","0.0610972568578554","0.013715710723192",697,NA,NA,0,0,0,0,1,"Full","City-Wide",-77.0278294,38.9433952
173,"PCS",4,"Roots","15 Kennedy Street, NW",64,"ES",9000,3896368,"Facility Allowance",NA,1780680,"Facilities Allowance","Ongoing",5677048,NA,95,2,39,7,"41%","7%","2%",109,60881,433,198,27823,631,88704,1,NA,NA,-77.010142,38.9567798
173,"PCS",4,"Roots N Capitol St","6222 North Capitol Street, NW",56,"ES",1374,NA,"Facility Allowance",NA,NA,"Facilities Allowance","Ongoing",NA,NA,NA,2,39,7,"41%","7%","2%",109,69578,2836,0,0,0,0,1,NA,NA,-77.0094126,38.9661824
305,"DCPS",2,"Ross Elementary","1730 R St  NW",176,"ES",22400,2604666,"Partial Modernization",2012,0,"Systems Renewals","",2612974,"Cardozo EC (6-8)",166,28,10,5,"0.0602409638554217","0.0301204819277108","0.168674698795181",135,14799,116,0,0,117,14846,1,"Phase I","Cardozo HS (9-12)",-77.039739,38.9123701
NA,"DCPS",4,"Rudolph (Closed)","5200 2nd St NW",NA,"CLOSED",84400,1e+05,"Stabilized",NA,0,NA,"",1e+05,NA,NA,NA,NA,NA,NA,NA,NA,NA,NA,1,0,0,1,NA,0,NA,NA,-77.0140391,38.9538896
NA,"PCS",2,"SAIL 16th St. (Closed 2011)","1100 16th Street NW",NA,"CLOSED",NA,1592727,"Facility Allowance",NA,NA,"CLOSED",NA,1592727,NA,NA,NA,NA,NA,NA,NA,NA,NA,NA,NA,0,0,0,0,0,NA,NA,-77.037016,38.903943
NA,"PCS",2,"SAIL H St (Closed 2010)","1705 H Street NW",NA,"CLOSED",NA,1592657,"Facility Allowance",NA,NA,"CLOSED",NA,1592657,NA,NA,NA,NA,NA,NA,NA,NA,NA,NA,NA,0,0,0,0,0,NA,NA,-77.0400669,38.9004679
NA,"PCS",6,"Sasha Bruce (Closed 2006)","1375 E Street NE",NA,"CLOSED",66622,1912721,"Facility Allowance",NA,NA,"CLOSED",NA,1912721,NA,NA,NA,NA,NA,NA,NA,NA,NA,NA,NA,0,0,29,NA,0,NA,NA,-76.986356,38.895719
307,"DCPS",8,"Savoy Elementary","2400 Shannon Pl SE",430,"ES",86800,34338372,"Full Modernization",2009,0,"Systems Renewals","",34338372,"Kramer MS",408,4,333,51,"0.816176470588235","0.125","0.00980392156862745",213,79857,396,0,0,396,79857,1,"Full","Anacostia HS",-76.9936331,38.8628014
466,"DCPS",2,"School Without Walls High","2130 G St NW",520,"HS",74000,40512741,"Full Modernization",2009,0,"Systems Renewals","",40512741,"",590,0,91,4,"0.154237288135593","0.00677966101694915","0",NA,77909,547,0,0,547,77909,1,"Full","City-Wide",-77.0479046,38.8980853
175,"DCPS",6,"School-Within-School at Goding ES","920 F STREET NE",450,"ES",59200,1365487,"Partial Modernization",2005,12028931,"Full Modernization","2019",16383000,NA,126,1,70,37,"0.555555555555556","0.293650793650794","0.00793650793650794",470,3034,23,203,26731,277,36407,1,"Phase I","City-Wide",-76.9931808,38.8976365
309,"DCPS",6,"Seaton Elementary","1503 10th St  NW",325,"ES",65000,4298925,"Partial Modernization",2011,0,"Systems Renewals","",4302057,"Cardozo EC (6-8)",295,125,148,32,"0.501694915254237","0.108474576271186","0.423728813559322",220,13227,66,0,0,66,13237,1,"Phase I","Cardozo HS (9-12)",-77.0252248,38.9106173
174,"PCS",7,"SEED","4300 C Street SE",421,"MS/HS",48128,31414511,"Facility Allowance",NA,16924320,"Facilities Allowance","Ongoing",48338831,NA,336,0,172,57,"51%","17%","0%",143,74619,653,352,40200,1004,114819,1,NA,NA,-76.9464327,38.8869027
197,"PCS",4,"Sela","6015 Chillum Place, NE",310,"ES",15680,483192,"Facility Allowance",NA,1611984,"Facilities Allowance","Ongoing",2095176,NA,86,8,24,8,"28%","9%","9%",NA,1559,31,103,5200,134,6759,1,NA,NA,-77.0074503,38.9639099
NA,"PCS",8,"Septima Clark (Closed 2013)","425 Chesapeake St SE",NA,"CLOSED",NA,3017000,"Facility Allowance",NA,NA,"CLOSED",NA,3017000,NA,NA,NA,NA,NA,NA,NA,NA,NA,NA,NA,0,0,0,0,0,NA,NA,-76.9991386,38.8286428
312,"DCPS",4,"Sharpe Health Special Ed","4300 13th Street NW",450,"ES",80500,1332075,"Stabilized",NA,0,"Systems Renewals","",2089951,NA,60,7,31,3,"0.516666666666667","0.05","0.116666666666667",1342,11101,17,0,0,26,4644,1,NA,NA,-77.03121,38.94344
NA,"DCPS",6,"Shaw Middle (Closed 2008)","925 Rhode Island Ave NW",800,"CLOSED",230400,10000,"Stabilized",NA,0,NA,"",10000,NA,NA,NA,NA,NA,NA,NA,NA,NA,NA,0,0,0,0,13,0,NA,NA,-77.025191,38.9120219
313,"DCPS",4,"Shepherd Elementary","7800 14th St  NW",400,"ES",79696,20462934,"Stabilized",2015,1274389,"Add/Full Mod","2016",31576280,"Deal MS",318,6,59,39,"0.185534591194969","0.122641509433962","0.0188679245283019",251,51157,257,16,3186,396,78941,1,"Phase I","Wilson HS",-77.034304,38.98471
3066,"PCS",4,"Shining Stars Montessori","6017 Chillum Place, NE",182,"ES",13580,947496,"Facility Allowance",NA,2211792,"Facilities Allowance","Ongoing",3159288,NA,118,12,20,1,"17%","1%","10%",NA,5206,70,163,12153,233,17359,1,NA,NA,-77.007573,38.9640197
315,"DCPS",8,"Simon Elementary","401 Mississippi Ave  SE",325,"ES",66192,8505311,"Partial Modernization",2012,0,"Systems Renewals","",8672620,"Hart MS",293,2,227,38,"0.774744027303754","0.129692832764505","0.0068259385665529",226,26170,128,0,0,131,26685,1,"Phase I","Ballou HS",-77.0000152,38.8359119
322,"DCPS",7,"Smothers Elementary","4400 Brooks St  NE",344,"ES",43000,152322,"Stabilized",NA,12679000,"Full Modernization","2020",12831322,"Kelly Miller MS",275,6,203,30,"0.738181818181818","0.109090909090909","0.0218181818181818",156,443,4,295,36858,298,37300,1,"Phase 0","Woodson HS",-76.9384696,38.8936613
187,"PCS",8,"Somerset","3301 Wheeler Road, SE",850,"MS",112000,1217280,"Facility Allowance",NA,4498560,"Facilities Allowance","Ongoing",5715840,NA,240,0,160,44,"67%","18%","0%",467,1432,11,40,5292,51,6725,1,NA,NA,-76.9939903,38.842272
427,"DCPS",7,"Sousa Middle","3650 Ely Pl SE",636,"MS",136000,34545250,"Full Modernization",2008,0,"Systems Renewals","",34545250,NA,284,0,209,82,"0.735915492957746","0.288732394366197","0",479,54316,254,0,0,254,54316,1,"Full","Anacostia HS",-76.953055,38.8840586
NA,"PCS",8,"Southeast Academy (Closed 2005)","645 Milwaukee Place SE",NA,"CLOSED",58539,3732006,"Facility Allowance",NA,NA,"CLOSED",NA,3732006,NA,NA,NA,NA,NA,NA,NA,NA,NA,NA,NA,0,0,64,NA,0,NA,NA,-76.996974,38.847472
1047,"PCS",7,"St. Coletta Special Education","1901 Independence Avenue, SE",525,"SPED",99540,6315254,"Facility Allowance",NA,4723488,"Facilities Allowance","Ongoing",11038742,NA,252,20,111,251,"44%","100%","8%",395,12029,63,47,8997,111,21026,1,NA,NA,-76.9764947,38.8868079
319,"DCPS",8,"Stanton Elementary","2701 Naylor Rd  SE",586,"ES",95000,23307939,"Stabilized",2015,2165644,"Add/Full Mod","2016",36035000,"Kramer MS",578,0,502,94,"0.868512110726644","0.162629757785467","0",164,39775,245,23,3696,379,61493,1,"Full","Anacostia HS",-76.9686199,38.8592905
321,"DCPS",3,"Stoddert Elementary","4001 Calvert St  NW",320,"ES",65200,34319480,"Full Modernization",2010,0,"Systems Renewals","",34319480,"Hardy MS",418,72,18,15,"0.0430622009569378","0.0358851674641148","0.172248803827751",156,107248,526,0,0,526,107248,1,"Full","Wilson HS",-77.078913,38.922673
428,"DCPS",6,"Stuart-Hobson Middle","410 E St  NE",450,"MS",115242,44653267,"Full Modernization",2015,1190116,"Systems Renewals","",47666762,"",423,3,143,83,"0.33806146572104","0.196217494089835","0.00709219858156028",272,99229,387,10,2645,414,105926,1,"Full","Eastern HS",-77.0000602,38.8965658
324,"DCPS",4,"Takoma Ed Campus","7010 Piney Branch Rd  NW",450,"ES/MS",118992,26979598,"Full Modernization",2012,0,"Systems Renewals","",27036559,"",442,113,189,70,"0.427601809954751","0.158371040723982","0.255656108597285",269,59955,227,0,0,227,60081,1,"Full","Coolidge HS",-77.022757,38.975217
NA,"PCS",6,"Tech World (Closed 2002)","401 M ST SW",NA,"CLOSED",NA,1143098,"Facility Allowance",NA,NA,"CLOSED",NA,1143098,NA,NA,NA,NA,NA,NA,NA,NA,NA,NA,NA,0,0,0,0,0,NA,NA,-77.0181687,38.8767074
168,"PCS",1,"The Next Step","3047 15th Street, NW",375,"ALT",31352,5675141,"Facility Allowance",NA,6804072,"Facilities Allowance","Ongoing",12479213,NA,363,203,0,13,"0%","4%","56%",86,15134,181,217,18144,398,33278,1,NA,NA,-77.0357768,38.9285225
NA,"PCS",7,"Thea Bowman (Closed 2011)","320 21st Street NE",NA,"CLOSED",15866,667214,"Facility Allowance",NA,NA,"CLOSED",NA,667214,NA,NA,NA,NA,NA,NA,NA,NA,NA,NA,NA,0,0,42,NA,0,NA,NA,-76.9750664,38.8939588
325,"DCPS",7,"Thomas Elementary","650 Anacostia Ave NE",474,"ES",87600,7563320,"Partial Modernization",2013,0,"Systems Renewals","",7572071,"Kelly Miller MS",408,6,295,44,"0.723039215686274","0.107843137254902","0.0147058823529412",215,15956,86,0,0,86,15975,1,"Phase I","Woodson HS",-76.952024,38.901224
326,"DCPS",2,"Thomson Elementary","1200 L St  NW",320,"ES",74992,25521091,"Full Modernization",2006,0,"Systems Renewals","",25521091,"Jefferson Acad. MS",272,141,124,40,"0.455882352941176","0.147058823529412","0.518382352941177",276,79753,340,0,0,340,79753,1,"Full","Eastern HS",-77.028505,38.9033859
191,"PCS",8,"Thurgood Marshall Academy","2427 Martin Luther King Jr. Avenue, SE",420,"HS",63625,12321572,"Facility Allowance",NA,7403880,"Facilities Allowance","Ongoing",19725452,NA,395,0,216,50,"55%","13%","0%",161,29337,194,116,17628,310,46965,1,NA,NA,-76.9937866,38.862346
183,"PCS",5,"Tree of Life Community","2315 18th Place, NE",286,"ES/MS",28076,10057948,"Facility Allowance",NA,5360784,"Facilities Allowance","Ongoing",15418732,NA,286,2,185,25,"65%","9%","1%",98,35168,358,191,18744,549,53912,1,NA,NA,-76.9777082,38.9207757
NA,"PCS",5,"Tri-Community (Closed 2007)","3700 N Capitol Street NW",NA,"CLOSED",NA,2080524,"Facility Allowance",NA,NA,"CLOSED",NA,2080524,NA,NA,NA,NA,NA,NA,NA,NA,NA,NA,NA,0,0,0,0,0,NA,NA,-77.011062,38.9362572
327,"DCPS",4,"Truesdell Ed Campus","800 Ingraham St  NW",542,"ES/MS",69600,4465045,"Partial Modernization",2011,7489000,"Partial Modernization","2020",11954045,"",526,239,290,104,"0.551330798479088","0.197718631178707","0.454372623574144",132,8238,64,108,13817,172,22055,1,"Phase I","Roosevelt HS",-77.0244158,38.9539256
328,"DCPS",1,"Tubman Elementary","3101 13th St  NW",500,"ES",66592,3644743,"Partial Modernization",2009,0,"Systems Renewals","",3644743,"Col. Hts. EC (6-8)",498,167,302,69,"0.606425702811245","0.13855421686747","0.335341365461847",134,7289,55,0,0,55,7289,1,"Phase I","Cardozo HS (9-12)",-77.0297009,38.9286359
329,"DCPS",8,"Turner Elementary","3264 Stanton Rd SE",530,"ES",101093,27580545,"Full Modernization",2013,0,"Systems Renewals","",27695424,"Johnson MS",392,0,333,52,"0.849489795918367","0.13265306122449","0",258,52039,273,0,0,274,52256,1,"Full","Ballou HS",-76.9804398,38.8473486
198,"PCS",6,"Two Rivers Elementary","1227 4th Street, NE ",380,"ES/MS",33076,11461694,"Facility Allowance",NA,9709392,"Facilities Allowance","Ongoing",21171086,NA,518,20,126,107,"24%","21%","4%",98,30162,347,294,25551,640,55713,1,NA,NA,-77.0001838,38.9067354
198,"PCS",6,"Two Rivers Middle","1234 4th Street, NE",144,"ES/MS",17929,9249094,"Facility Allowance",NA,9709392,"Facilities Allowance","Ongoing",18958486,NA,518,20,126,107,"24%","21%","4%",98,64230,516,542,67426,1057,131656,1,NA,NA,-77.000978,38.90642
330,"DCPS",6,"Tyler Elementary","1001 G St  SE",564,"ES",69600,3750929,"Partial Modernization",2010,0,"Systems Renewals","",3750929,"Jefferson Acad. MS",522,9,239,74,"0.457854406130268","0.14176245210728","0.0172413793103448",133,6651,54,0,0,54,6651,1,"Phase I","Eastern HS",-76.9922965,38.8810182
NA,"DCPS",6,"Van Ness Elementary","1150 5th St SE",336,"ES",49400,10556642,"Stabilized",2015,17995000,"Add/Full Mod","2016",32448396,"Jefferson Acad. MS",NA,NA,NA,NA,NA,NA,NA,NA,31419,214,364,53557,657,96573,1,"Full","Eastern HS",-76.999143,38.8767476
NA,"PCS",5,"Village Learning Center (Closed 2004)","33 Riggs Road NE",NA,"CLOSED",50600,2878377,"Facility Allowance",NA,NA,"CLOSED",NA,2878377,NA,NA,NA,NA,NA,NA,NA,NA,NA,NA,NA,0,0,57,NA,0,NA,NA,-77.006643,38.9549208
332,"DCPS",6,"Walker-Jones Ed Campus","1125 New Jersey Ave NW",700,"ES/MS",95000,40442253,"Full Replacement",2009,0,"Systems Renewals","",40442253,"",465,8,348,124,"0.748387096774194","0.266666666666667","0.0172043010752688",204,57775,426,0,0,426,57775,1,"Full","Dunbar HS",-77.0140256,38.9045185
NA,"PCS",7,"Washington Academy G St (Closed 2008)","4625 G St SE",NA,"CLOSED",NA,910294,"Facility Allowance",NA,NA,"CLOSED",NA,910294,NA,NA,NA,NA,NA,NA,NA,NA,NA,NA,NA,0,0,0,0,0,NA,NA,-76.9346599,38.880396
NA,"PCS",6,"Washington Academy M St (Closed 2008)","770 M Street SE",NA,"CLOSED",28000,1086613,"Facility Allowance",NA,NA,"CLOSED",NA,1086613,NA,NA,NA,NA,NA,NA,NA,NA,NA,NA,NA,0,0,39,NA,0,NA,NA,-76.995574,38.877003
NA,"PCS",7,"Washington Academy Penn Ave (Closed 2008)","3000 Pennsylvania Ave SE",NA,"CLOSED",NA,555990,"Facility Allowance",NA,NA,"CLOSED",NA,555990,NA,NA,NA,NA,NA,NA,NA,NA,NA,NA,NA,0,0,0,0,0,NA,NA,-76.9638478,38.8711371
NA,"PCS",4,"Washington Latin Middle/High","5200 2nd Street, NW",685,"",64320,12785724,"0",0,12558480,"0","0",25344204,"0",670,9,86,60,"13%","9%","1%",96,18665,199,195,18334,394,36999,2,NA,NA,-77.013189,38.953489
178,"PCS",5,"Washington Math Science Tech","1920 Bladensburg Road NE",350,"HS",49116,13661934,"Facility Allowance",NA,6279240,"Facilities Allowance","Ongoing",19941174,NA,335,3,222,72,"66%","21%","1%",147,39034,278,128,17941,406,56975,1,NA,NA,-76.9737654,38.9164261
474,"DCPS",1,"Washington Metropolitan High","300 Bryant Street NW",350,"ALT",49496,0,"Stabilized",NA,9900000,"Partial Modernization","2021",9900000,"",244,2,0,45,"0","0.184426229508197","0.00819672131147541",NA,0,0,200,28286,200,28286,1,"Phase 0","City-Wide",-77.0167156,38.9202168
1117,"PCS",5,"Washington Yu Ying","220 Taylor Street, NE",595,"ES",41118,7254586,"Facility Allowance",NA,9896832,"Facilities Allowance","Ongoing",17151418,NA,528,31,22,30,"4%","6%","6%",78,12193,176,241,16633,417,28826,1,NA,NA,-77.0036779,38.941395
333,"DCPS",6,"Watkins Elementary","420 12th St  SE",587,"ES",69296,2675972,"Stabilized",2015,30313978,"Add/Full Mod","2017",39400200,"Stuart-Hobson MS",500,4,98,45,"0.196","0.09","0.008",139,4559,39,437,51642,569,67121,1,"Phase 0","Eastern HS",-76.9898004,38.8834823
336,"DCPS",4,"West Ed Campus","1338 Farragut St  NW",278,"ES/MS",69642,0,"Stabilized",NA,35095000,"Full Modernization","2021",35095000,"",267,27,112,44,"0.419475655430712","0.164794007490637","0.101123595505618",261,0,0,504,126241,504,126241,1,"Phase 0","Roosevelt HS",-77.032481,38.9513341
335,"DCPS",5,"Wheatley Ed Campus","1299 Neal St NE",500,"ES/MS",86368,42645563,"Full Modernization",2009,0,"Systems Renewals","",42645768,"",463,7,364,68,"0.786177105831533","0.146868250539957","0.0151187904967603",NA,85291,494,0,0,494,85292,1,"Full","Dunbar HS",-76.9884533,38.9042927
338,"DCPS",4,"Whittier Ed Campus","6201 5th St  NW",520,"ES/MS",71092,5208611,"Partial Modernization",2012,0,"Systems Renewals","",5241031,"",350,38,214,74,"0.611428571428571","0.211428571428571","0.108571428571429",203,10017,73,0,0,74,10079,1,"Phase I","Coolidge HS",-77.019146,38.9658779
NA,"DCPS",8,"Wilkinson PK3-8th (Closed 2008)","2330 Pomeroy Rd. SE",400,"CLOSED",144900,5e+05,"Stabilized",NA,0,NA,"",5e+05,NA,NA,NA,NA,NA,NA,NA,NA,NA,NA,3,0,0,3,1250,0,NA,NA,NA,NA
210,"PCS",5,"William E Doar Jr","705 Edgewood Street, NE",624,"ES/MS",46835,12280675,"Facility Allowance",NA,8228616,"Facilities Allowance","Ongoing",20509291,NA,439,13,223,35,"51%","8%","3%",107,19681,262,176,13187,438,32867,1,NA,NA,-76.9957981,38.9236618
NA,"PCS",5,"William E Doar Jr, Soldiers Home (Closed)","3700 N Capitol Street NW",NA,"CLOSED",NA,1910351,"Facility Allowance",NA,NA,"CLOSED",NA,1910351,NA,NA,NA,NA,NA,NA,NA,NA,NA,NA,NA,0,0,0,0,0,NA,NA,-77.011062,38.9362572
463,"DCPS",3,"Wilson High","3950 Chesapeake St NW",1700,"HS",376448,135126577,"Full Modernization",2011,0,"Systems Renewals","",135126577,"",1788,106,550,263,"0.307606263982103","0.147091722595078","0.0592841163310962",211,79486,359,0,0,359,79486,1,"Full","Wilson HS",-77.0764147,38.9504147
464,"DCPS",7,"Woodson, H.D. High","540 55th St. NE",1000,"HS",253406,107742134,"Full Replacement",2011,0,"Systems Renewals","",107779131,"",639,6,501,193,"0.784037558685446","0.302034428794992","0.00938967136150235",397,107742,425,0,0,425,107779,1,"Full","Woodson HS",-76.9227134,38.8967763
NA,"PCS",4,"World (Closed 1998)","1375 Missouri Ave NW",NA,"CLOSED",16468,454860,"Facility Allowance",NA,NA,"CLOSED",NA,454860,NA,NA,NA,NA,NA,NA,NA,NA,NA,NA,NA,0,0,28,NA,0,NA,NA,-77.0323824,38.9622483
NA,"PCS",4,"Young America Works (Closed 2010)","6015 Chillum Place NE",NA,"CLOSED",15680,3970618,"Facility Allowance",NA,NA,"CLOSED",NA,3970618,NA,NA,NA,NA,NA,NA,NA,NA,NA,NA,NA,0,0,253,NA,0,NA,NA,-77.0074503,38.9639099
NA,"PCS",5,"Young Technocrats (Closed 1999)","101 T Street NE",NA,"CLOSED",1e+05,285671,"Facility Allowance",NA,NA,"CLOSED",NA,285671,NA,NA,NA,NA,NA,NA,NA,NA,NA,NA,NA,0,0,3,NA,0,NA,NA,-77.005475,38.914235
128,"PCS",1,"Youthbuild","3014 14th St NW",100,"ALT",11709,2831123,"Facility Allowance",NA,2099328,"Facilities Allowance","Ongoing",4930451,NA,112,7,0,10,"0%","9%","6%",105,28311,242,179,20993,421,49305,1,NA,NA,-77.0327382,38.9277886
