"SCHOOLCODE","Level","Address","maxOccupancy","totalSQFT","Total.Enrolled","School","Limited.English.Proficient","At_Risk","SPED","latitude","longitude","Ward","MajorExp9815","TotalAllotandPlan1621","LifetimeBudget","Agency","AtRiskPer","SPEDPer","ESLPer","SqFtPerEnroll","SpentPerEnroll","SpentPerSqFt","FeederMS","FeederHS","ProjectPhase","YrComplete","ProjectType"
126,"ADULT","1755 Newton Street, NW","N/A",NA,NA,"Briya Public Charter School",50,20,5,38.92097271,-77.0398061,"1",NA,NA,NA,"PCS",NA,NA,NA,NA,NA,NA,NA,NA,NA,NA,NA
126,"ADULT","2333 Ontario Road, NW (Main Office)","N/A",NA,NA,"Briya Public Charter School",50,20,5,38.92097271,-77.0398061,"1",NA,NA,NA,"PCS",NA,NA,NA,NA,NA,NA,NA,NA,NA,NA,NA
126,"ADULT","3912 Georgia Avenue, NW","663",26940,492,"Briya Public Charter School",50,20,5,38.92097271,-77.0398061,"1",NA,NA,NA,"PCS",0.040650406504065,0.0101626016260163,0.101626016260163,54.7560975609756,NA,NA,NA,NA,NA,NA,NA
138,"ES","4025 9th Street, SE","178",15602,207,"Early Childhood Academy PCS",0,167,22,38.83175194,-76.99053162,"8",NA,NA,NA,"PCS",0.806763285024155,0.106280193236715,0,75.3719806763285,NA,NA,NA,NA,NA,NA,NA
138,"ES","4301 9th Street, SE ","122",4012,53,"Early Childhood Academy PCS",0,167,22,38.83175194,-76.99053162,"8",NA,NA,NA,"PCS",3.15094339622642,0.415094339622642,0,75.6981132075472,NA,NA,NA,NA,NA,NA,NA
142,"ES","1244 Taylor Street. NW","155",10776,142,"Bridges PCS",102,93,77,38.94050005,-77.02862381,"4",NA,NA,NA,"PCS",0.654929577464789,0.542253521126761,0.71830985915493,75.887323943662,NA,NA,NA,NA,NA,NA,NA
142,"ES","1250 Taylor Street, NW","89",3900,51,"Bridges PCS",102,93,77,38.94050005,-77.02862381,"4",NA,NA,NA,"PCS",1.82352941176471,1.50980392156863,2,76.4705882352941,NA,NA,NA,NA,NA,NA,NA
142,"ES","4300 13th Street NW
","290
",6000,79,"Bridges PCS",102,93,77,38.94050005,-77.02862381,"4",NA,NA,NA,"PCS",1.17721518987342,0.974683544303797,1.29113924050633,75.9493670886076,NA,NA,NA,NA,NA,NA,NA
173,"ES","15 Kennedy Street, NW","70",9000,82,"Roots PCS",2,39,7,38.95686375,-77.01030958,"4",NA,NA,NA,"PCS",0.475609756097561,0.0853658536585366,0.024390243902439,109.756097560976,NA,NA,NA,NA,NA,NA,NA
173,"ES","6222 North Capitol Street, NW","160",1374,13,"Roots PCS",2,39,7,38.95686375,-77.01030958,"4",NA,NA,NA,"PCS",3,0.538461538461538,0.153846153846154,105.692307692308,NA,NA,NA,NA,NA,NA,NA
193,"ES","1800 Perry Street, NE","220",20200,188,"Latin American Montessori Bilingual (LAMB) PCS",129,40,38,38.96216089,-77.03239905,"4",NA,NA,NA,"PCS",0.212765957446809,0.202127659574468,0.686170212765957,107.446808510638,NA,NA,NA,NA,NA,NA,NA
193,"ES","1375 Missouri Avenue, NW","346",16468,154,"Latin American Montessori Bilingual (LAMB) PCS",129,40,38,38.96216089,-77.03239905,"4",NA,NA,NA,"PCS",0.25974025974026,0.246753246753247,0.837662337662338,106.935064935065,NA,NA,NA,NA,NA,NA,NA
198,"ES/MS","1227 4th Street, NE ","537",33076,336,"Two Rivers PCS",20,126,107,38.90675361,-77.00029965,"6",NA,NA,NA,"PCS",0.375,0.318452380952381,0.0595238095238095,98.4404761904762,NA,NA,NA,NA,NA,NA,NA
198,"ES/MS","1234 4th Street, NE","149",17929,182,"Two Rivers PCS",20,126,107,38.90675361,-77.00029965,"6",NA,NA,NA,"PCS",0.692307692307692,0.587912087912088,0.10989010989011,98.510989010989,NA,NA,NA,NA,NA,NA,NA
199,"ES","1420 Columbia Road, NW","549",50000,243,"D C  Bilingual PCS",180,130,56,38.92719562,-77.0333075,"1",NA,NA,NA,"PCS",0.534979423868313,0.230452674897119,0.740740740740741,205.761316872428,NA,NA,NA,NA,NA,NA,NA
199,"ES","3029 14th Street, NW","260",25000,121,"D C  Bilingual PCS",180,130,56,38.92719562,-77.0333075,"1",NA,NA,NA,"PCS",1.07438016528926,0.462809917355372,1.48760330578512,206.611570247934,NA,NA,NA,NA,NA,NA,NA
233,"ADULT","
421 Alabama Avenue, SE","111",12000,144,"Academy of Hope Adult PCS",0,0,0,NA,NA,NA,NA,NA,NA,"PCS",0,0,0,83.3333333333333,NA,NA,NA,NA,NA,NA,NA
233,"ADULT","601 Edgewood Street, NE","75",9375,112,"Academy of Hope Adult PCS",0,0,0,NA,NA,NA,NA,NA,NA,"PCS",0,0,0,83.7053571428571,NA,NA,NA,NA,NA,NA,NA
1119,"ADULT","514 V Street, NE","414",48000,717,"Carlos Rosario International PCS Harvard Street Campus",113,0,0,38.92646384,-77.02755753,"1",NA,NA,NA,"PCS",0,0,0.157601115760112,66.9456066945607,NA,NA,NA,NA,NA,NA,NA
1119,"ADULT","1100 Harvard Street, NW"," 	1,200 ",84000,1256,"Carlos Rosario International PCS Harvard Street Campus",113,0,0,38.92646384,-77.02755753,"1",NA,NA,NA,"PCS",0,0,0.089968152866242,66.8789808917197,NA,NA,NA,NA,NA,NA,NA
1124,"MS/HS","2705 Martin Luther King Jr. Avenue, SE","848",59125,445,"Friendship PCS Tech Prep",1,353,90,38.84826749,-76.99757265,"8",NA,NA,NA,"PCS",0.793258426966292,0.202247191011236,0.00224719101123596,132.865168539326,NA,NA,NA,NA,NA,NA,NA
1124,"MS/HS","620 Milwaukee Place, SE","200",7224,54,"Friendship PCS Tech Prep",1,353,90,38.84826749,-76.99757265,"8",NA,NA,NA,"PCS",6.53703703703704,1.66666666666667,0.0185185185185185,133.777777777778,NA,NA,NA,NA,NA,NA,NA
1207,"HS","102 Peabody Street, NW","",57033,354,"Capital City High School PCS",50,148,60,38.96216486,-77.01286745,"4",NA,NA,NA,"PCS",0.418079096045198,0.169491525423729,0.141242937853107,161.110169491525,NA,NA,NA,NA,NA,NA,NA
1207,"ES","4502 Kansas Avenue, NW","",53800,333,"Capital City High School PCS",50,148,60,38.96216486,-77.01286745,"4",NA,NA,NA,"PCS",0.444444444444444,0.18018018018018,0.15015015015015,161.561561561562,NA,NA,NA,NA,NA,NA,NA
3072,"PK3-K","2011 Savannah Terrace, SE","120",7484,78,"AppleTree Early Learning PCS Southeast",1,129,4,38.84876326,-76.9749201,"8",NA,NA,NA,"PCS",1.65384615384615,0.0512820512820513,0.0128205128205128,95.9487179487179,NA,NA,NA,NA,NA,NA,NA
3072,"PK3-K","2017 Savannah Terrace, SE","110",9677,100,"AppleTree Early Learning PCS Southeast",1,129,4,38.84876326,-76.9749201,"8",NA,NA,NA,"PCS",1.29,0.04,0.01,96.77,NA,NA,NA,NA,NA,NA,NA
196,"MS"," 701 Edgewood Street, NE","340",39746,294,"D C  Preparatory Edgewood Middle Campus PCS",1,101,46,38.92473904,-76.99600905,"5",NA,NA,NA,"PCS",0.343537414965986,0.156462585034014,0.00340136054421769,135.190476190476,NA,NA,NA,NA,NA,NA,NA
1110,"ES","100 41st Street, NE","849",80352,442,"D C  Preparatory Benning Campus PCS",8,231,22,38.8910218,-76.94482148,"7",NA,NA,NA,"PCS",0.52262443438914,0.0497737556561086,0.0180995475113122,181.79185520362,NA,NA,NA,NA,NA,NA,NA
184,"ES","100 Peabody Street, NW"," 	1,180 ",57033,322,"Capital City Lower PCS",95,72,15,38.96216486,-77.01286745,"4",NA,NA,NA,"PCS",0.22360248447205,0.046583850931677,0.295031055900621,177.121118012422,NA,NA,NA,NA,NA,NA,NA
218,"MS","101 41st Street, NE","",26784,152,"D C Preparatory Benning Middle Campus",1,67,22,38.8910218,-76.94482148,"7",NA,NA,NA,"PCS",0.440789473684211,0.144736842105263,0.00657894736842105,176.210526315789,NA,NA,NA,NA,NA,NA,NA
182,"MS","101 Peabody Street, NW","",57033,320,"Capital City Middle School",38,111,56,38.96216486,-77.01286745,"4",NA,NA,NA,"PCS",0.346875,0.175,0.11875,178.228125,NA,NA,NA,NA,NA,NA,NA
1125,"ES","1017 New Jersey Avenue, SE","190",8500,146,"Eagle Academy PCS New Jersey Avenue Campus",0,79,11,38.8778378,-77.00508258,"6",NA,NA,NA,"PCS",0.541095890410959,0.0753424657534247,0,58.2191780821918,NA,NA,NA,NA,NA,NA,NA
163,"HS","1027 45th Street, NE","490",70000,217,"IDEA PCS",1,165,42,38.90454891,-76.93710358,"7",NA,NA,NA,"PCS",0.76036866359447,0.193548387096774,0.00460829493087558,322.58064516129,NA,NA,NA,NA,NA,NA,NA
1108,"ES/MS","1217 W  Virginia Avenue, NE","434",23313,236,"Center City Trinidad Campus PCS",4,132,26,38.90529915,-76.99120218,"5",NA,NA,NA,"PCS",0.559322033898305,0.110169491525424,0.0169491525423729,98.7838983050847,NA,NA,NA,NA,NA,NA,NA
105,"ES","1300 Allison Street, NW","957",55000,590,"Community Academy Amos I",213,261,53,38.94470049,-77.03054061,"4",NA,NA,NA,"PCS",0.442372881355932,0.0898305084745763,0.361016949152542,93.2203389830509,NA,NA,NA,NA,NA,NA,NA
363,"ES","1345 Potomac Avenue, SE"," 	1,046 ",42232,375,"Friendship PCS Chamberlain Elementary",1,235,18,38.87938499,-76.9868023,"6",NA,NA,NA,"PCS",0.626666666666667,0.048,0.00266666666666667,112.618666666667,NA,NA,NA,NA,NA,NA,NA
364,"MS","1345 Potomac Avenue, SE","",38628,343,"Friendship PCS Chamberlain Middle",0,200,59,38.87938,-76.9868,"6",NA,NA,NA,"PCS",0.583090379008746,0.17201166180758,0,112.618075801749,NA,NA,NA,NA,NA,NA,NA
108,"ES/MS","1351 Nicholson Street, NW","217",20100,123,"Community Academy CAPCS Online",0,43,21,38.9059779,-77.0321778,"2",NA,NA,NA,"PCS",0.349593495934959,0.170731707317073,0,163.414634146341,NA,NA,NA,NA,NA,NA,NA
169,"MS/HS","1375 E Street, NE"," 	1,127 ",66622,268,"Options PCS",0,218,168,38.89585026,-76.98621343,"6",NA,NA,NA,"PCS",0.813432835820896,0.626865671641791,0,248.589552238806,NA,NA,NA,NA,NA,NA,NA
209,"PK3-K","1375 Mt Olivet Road, NE"," 	1,206 ",38123,301,"KIPP DC Connect Academy",2,159,21,38.90807397,-76.98113601,"5",NA,NA,NA,"PCS",0.528239202657807,0.0697674418604651,0.00664451827242525,126.654485049834,NA,NA,NA,NA,NA,NA,NA
214,"ES","1375 Mt Olivet Road, NE","",12919,102,"KIPP DC Spring Academy",0,60,5,38.90807397,-76.98113601,"5",NA,NA,NA,"PCS",0.588235294117647,0.0490196078431373,0,126.656862745098,NA,NA,NA,NA,NA,NA,NA
242,"MS","1375 Mt Olivet Road, NE","",15958,126,"KIPP DC Northeast Academy PCS",1,70,22,NA,NA,NA,NA,NA,NA,"PCS",0.555555555555556,0.174603174603175,0.00793650793650794,126.650793650794,NA,NA,NA,NA,NA,NA,NA
3073,"PK3-K","138 12th Street, NE","73",8975,60,"AppleTree Early Learning Center PCS Lincoln Park",2,5,5,38.89151343,-76.99053567,"6",NA,NA,NA,"PCS",0.0833333333333333,0.0833333333333333,0.0333333333333333,149.583333333333,NA,NA,NA,NA,NA,NA,NA
106,"ES","1400 1st Street, NW"," 	1,020 ",1e+05,523,"Community Academy Butler Global",51,272,35,38.90908026,-77.0132191,"5",NA,NA,NA,"PCS",0.520076481835564,0.0669216061185468,0.0975143403441683,191.204588910134,NA,NA,NA,NA,NA,NA,NA
1123,"HS","1401 Brentwood Parkway, NE","500",187423,454,"KIPP DC College Prep PCS",0,232,86,38.85662232,-76.98804884,"8",NA,NA,NA,"PCS",0.511013215859031,0.18942731277533,0,412.825991189427,NA,NA,NA,NA,NA,NA,NA
135,"ES/MS","1404 Jackson Street, NE","450",56927,381,"Mary McLeod Bethune Day Academy PCS Slowe Campus",8,237,35,38.92960592,-76.98686463,"5",NA,NA,NA,"PCS",0.622047244094488,0.0918635170603675,0.020997375328084,149.41469816273,NA,NA,NA,NA,NA,NA,NA
217,"ES","1500 Mississippi Avenue, SE","N/A",23302,267,"Achievement Preparatory PCS-Elementary",1,132,23,38.83432822,-76.99226882,"8",NA,NA,NA,"PCS",0.49438202247191,0.0861423220973783,0.00374531835205993,87.2734082397004,NA,NA,NA,NA,NA,NA,NA
1104,"ES/MS","1503 East Capitol Street, SE","534",40037,239,"Center City Capitol Hill Campus PCS",0,112,23,38.88952582,-76.98330456,"6",NA,NA,NA,"PCS",0.468619246861925,0.096234309623431,0,167.518828451883,NA,NA,NA,NA,NA,NA,NA
161,"PK3-12","1800 Perry Street, NE"," 	1,250 ",171000,619,"Perry Street Prep PCS",10,343,93,38.93679648,-76.97859551,"5",NA,NA,NA,"PCS",0.554119547657512,0.150242326332795,0.0161550888529887,276.252019386107,NA,NA,NA,NA,NA,NA,NA
160,"HS","1851 9th Street NW","347",29300,171,"Hospitality High School",14,130,58,38.91536518,-77.02364411,"1",NA,NA,NA,"PCS",0.760233918128655,0.339181286549708,0.0818713450292398,171.345029239766,NA,NA,NA,NA,NA,NA,NA
1047,"SPED","1901 Independence Avenue, SE","525",99540,252,"St. Coletta Special Education PCS",20,111,251,38.88721683,-76.97667492,"7",NA,NA,NA,"PCS",0.44047619047619,0.996031746031746,0.0793650793650794,395,NA,NA,NA,NA,NA,NA,NA
178,"HS","1920 Bladensburg Road, NE","420",49116,335,"Washington Math Science Tech PCS",3,222,72,38.91641842,-76.97378958,"5",NA,NA,NA,"PCS",0.662686567164179,0.214925373134328,0.00895522388059702,146.614925373134,NA,NA,NA,NA,NA,NA,NA
3064,"ES/MS","200 Douglas Street, NE","620",40800,317,"Inspired Teaching Demonstration PCS",14,35,34,38.92008577,-77.03079817,"1",NA,NA,NA,"PCS",0.110410094637224,0.107255520504732,0.0441640378548896,128.706624605678,NA,NA,NA,NA,NA,NA,NA
165,"ES/MS","2120 13th Street, NW","718",61900,639,"Meridian PCS",176,294,77,38.91874942,-77.02995351,"1",NA,NA,NA,"PCS",0.460093896713615,0.120500782472613,0.275430359937402,96.8701095461659,NA,NA,NA,NA,NA,NA,NA
1105,"ES/MS","220 Highview Place, SE","341",27000,257,"Center City Congress Heights Campus PCS",0,172,19,38.84158668,-77.00444463,"8",NA,NA,NA,"PCS",0.669260700389105,0.0739299610894942,0,105.058365758755,NA,NA,NA,NA,NA,NA,NA
1117,"ES","220 Taylor Street, NE","610",41118,528,"Washington Yu Ying PCS",31,22,30,38.94123488,-77.00368216,"5",NA,NA,NA,"PCS",0.0416666666666667,0.0568181818181818,0.0587121212121212,77.875,NA,NA,NA,NA,NA,NA,NA
183,"ES/MS","2315 18th Place, NE"," 	1,393 ",28076,286,"Tree of Life Community PCS",2,185,25,38.9207792,-76.97783843,"5",NA,NA,NA,"PCS",0.646853146853147,0.0874125874125874,0.00699300699300699,98.1678321678322,NA,NA,NA,NA,NA,NA,NA
216,"ADULT","2405 Martin Luther King Jr. Avenue, SE","155",11000,273,"Community College Preparatory Academy PCS",0,0,1,38.86275176,-76.99262996,"8",NA,NA,NA,"PCS",0,0.00366300366300366,0,40.2930402930403,NA,NA,NA,NA,NA,NA,NA
191,"HS","2427 Martin Luther King Jr. Avenue, SE","416",63625,395,"Thurgood Marshall Academy PCS",0,216,50,38.86227707,-76.99368577,"8",NA,NA,NA,"PCS",0.546835443037975,0.126582278481013,0,161.075949367089,NA,NA,NA,NA,NA,NA,NA
1113,"ES","2501 Martin Luther King Jr. Avenue, SE"," 	1,292 ",67508,569,"Excel Academy PCS",0,366,23,38.85976209,-76.99535457,"8",NA,NA,NA,"PCS",0.64323374340949,0.0404217926186292,0,118.643233743409,NA,NA,NA,NA,NA,NA,NA
1211,"MS","2502 Martin Luther King Jr. Avenue, SE","",19288,155,"Excel Academy PCS LEAD",0,100,27,NA,NA,NA,NA,NA,NA,"PCS",0.645161290322581,0.174193548387097,0,124.438709677419,NA,NA,NA,NA,NA,NA,NA
116,"MS","2600 Douglass Place, SE"," 	1,900 ",43362,321,"KIPP DC AIM PCS Academy PCS",1,189,74,38.85662232,-76.98804884,"8",NA,NA,NA,"PCS",0.588785046728972,0.230529595015576,0.00311526479750779,135.084112149533,NA,NA,NA,NA,NA,NA,NA
1122,"PK3-K","2600 Douglass Place, SE","",44578,330,"KIPP DC Discover PCS",0,203,22,38.85662232,-76.98804884,"8",NA,NA,NA,"PCS",0.615151515151515,0.0666666666666667,0,135.084848484848,NA,NA,NA,NA,NA,NA,NA
3071,"ES","2600 Douglass Place, SE","",56060,415,"KIPP DC Heights Academy PCS",0,229,57,38.85662232,-76.98804884,"8",NA,NA,NA,"PCS",0.551807228915663,0.137349397590361,0,135.084337349398,NA,NA,NA,NA,NA,NA,NA
140,"PK3-K","2750 14th Street, NW ","188",12204,163,"AppleTree Early Learning Center PCS Columbia Heights",37,58,10,38.92524403,-77.03274382,"1",NA,NA,NA,"PCS",0.355828220858896,0.0613496932515337,0.226993865030675,74.8711656441718,NA,NA,NA,NA,NA,NA,NA
114,"ES/MS","2917 8th Street, NE","540",33571,517,"Hope Community PCS Tolson Campus",34,264,43,38.9269508,-76.99461626,"5",NA,NA,NA,"PCS",0.51063829787234,0.0831721470019342,0.0657640232108317,64.9342359767892,NA,NA,NA,NA,NA,NA,NA
365,"ES","2959 Carlton Avenue, NE","600",37000,284,"Friendship PCS Woodridge Elementary",8,127,12,38.92954664,-76.9665146,"5",NA,NA,NA,"PCS",0.447183098591549,0.0422535211267606,0.028169014084507,130.281690140845,NA,NA,NA,NA,NA,NA,NA
366,"MS","2960 Carlton Avenue, NE","",0,168,"Friendship PCS Woodridge Middle",1,75,35,38.92954664,-76.9665146,"5",NA,NA,NA,"PCS",0.446428571428571,0.208333333333333,0.00595238095238095,0,NA,NA,NA,NA,NA,NA,NA
3065,"ES","30 P Street, NW","897",36148,404,"Mundo Verde Bilingual PCS",84,57,22,38.93131343,-77.03681,"1",NA,NA,NA,"PCS",0.141089108910891,0.0544554455445545,0.207920792079208,89.4752475247525,NA,NA,NA,NA,NA,NA,NA
228,"ES","301 Douglas Street, NE","162",13200,74,"Lee Montessori PCS",0,10,5,NA,NA,NA,NA,NA,NA,"PCS",0.135135135135135,0.0675675675675676,0,178.378378378378,NA,NA,NA,NA,NA,NA,NA
128,"ALT","3014 14th St NW","100",11709,112,"Youthbuild PCS",7,0,10,38.92774375,-77.03275327,"1",NA,NA,NA,"PCS",0,0.0892857142857143,0.0625,104.544642857143,NA,NA,NA,NA,NA,NA,NA
104,"ALT","3047 15th Street, NW","225",16097,190,"Latin American Youth Center Career Academy",36,0,6,38.92851269,-77.0358413,"1",NA,NA,NA,"PCS",0,0.0315789473684211,0.189473684210526,84.7210526315789,NA,NA,NA,NA,NA,NA,NA
168,"ALT","3047 15th Street, NW","375",30755,363,"The Next Step PCS",203,0,13,38.92851269,-77.0358413,"1",NA,NA,NA,"PCS",0,0.0358126721763085,0.559228650137741,84.7245179063361,NA,NA,NA,NA,NA,NA,NA
234,"ES","3100 Martin Luther King Jr. Avenue, SE","890",42528,620,"Democracy Prep PCS-Congress Heights",1,436,70,NA,NA,NA,NA,NA,NA,"PCS",0.703225806451613,0.112903225806452,0.00161290322580645,68.5935483870968,NA,NA,NA,NA,NA,NA,NA
1137,"PK3-K","320 21st Street, NE","218",15866,161,"AppleTree Early Learning Center PCS Oklahoma",3,80,4,38.89459581,-76.97558295,"7",NA,NA,NA,"PCS",0.496894409937888,0.0248447204968944,0.0186335403726708,98.5465838509317,NA,NA,NA,NA,NA,NA,NA
248,"MS","3220 16th Street, NW","308",20217,210,"District of Columbia International School",26,44,40,NA,NA,NA,NA,NA,NA,"PCS",0.20952380952381,0.19047619047619,0.123809523809524,96.2714285714286,NA,NA,NA,NA,NA,NA,NA
3069,"ES","3224 16th Street, NW","203",17976,181,"Creative Minds International PCS",10,22,48,38.93151044,-77.03681552,"1",NA,NA,NA,"PCS",0.121546961325967,0.265193370165746,0.0552486187845304,99.3149171270718,NA,NA,NA,NA,NA,NA,NA
158,"ES","33 Riggs Road, NE","600",50600,329,"Community Academy Amos II",86,193,18,38.95492264,-77.00663786,"5",NA,NA,NA,"PCS",0.586626139817629,0.0547112462006079,0.261398176291793,153.799392097264,NA,NA,NA,NA,NA,NA,NA
187,"MS","3301 Wheeler Road, SE"," 	1,149 ",112000,240,"Somerset PCS",0,160,44,38.84151923,-76.99410056,"8",NA,NA,NA,"PCS",0.666666666666667,0.183333333333333,0,466.666666666667,NA,NA,NA,NA,NA,NA,NA
195,"ES","3400 Wheeler Road, SE"," 	1,241 ",60000,774,"Eagle Academy PCS - Eagle Center at McGogney",2,466,83,38.84026907,-76.9930375,"8",NA,NA,NA,"PCS",0.602067183462532,0.107235142118863,0.00258397932816537,77.5193798449612,NA,NA,NA,NA,NA,NA,NA
146,"MS","3600 Georgia Avenue, NW","516",45484,377,"E L  Haynes PCS Georgia Avenue",54,157,77,38.93432162,-77.02424335,"1",NA,NA,NA,"PCS",0.416445623342175,0.204244031830239,0.143236074270557,120.647214854111,NA,NA,NA,NA,NA,NA,NA
159,"ES","3700 Oakview Terrace, NE","450",32341,350,"Elsie Whitlow Stokes Community Freedom PCS",63,62,26,38.93498987,-76.99008735,"5",NA,NA,NA,"PCS",0.177142857142857,0.0742857142857143,0.18,92.4028571428571,NA,NA,NA,NA,NA,NA,NA
109,"HS","3701 Hayes Street,  NE","834",36015,356,"Cesar Chavez PCS Parkside Upper",7,228,40,38.90143803,-76.94906511,"7",NA,NA,NA,"PCS",0.640449438202247,0.112359550561798,0.0196629213483146,101.165730337079,NA,NA,NA,NA,NA,NA,NA
102,"MS","3702 Hayes Street,  NE","",30870,303,"Cesar Chavez Parkside MS PCS",8,204,42,38.90143803,-76.94906511,"7",NA,NA,NA,"PCS",0.673267326732673,0.138613861386139,0.0264026402640264,101.881188118812,NA,NA,NA,NA,NA,NA,NA
115,"MS","405 Howard Place, NW","435",20968,294,"Howard University Middle School of Math and Science PCS",11,115,9,38.92284156,-77.01912932,"1",NA,NA,NA,"PCS",0.391156462585034,0.0306122448979592,0.0374149659863946,71.3197278911565,NA,NA,NA,NA,NA,NA,NA
186,"HS","4095 Minnesota Avenue, NE"," 	1,500 ",152000,883,"Friendship PCS Woodson Collegiate Academy",0,517,165,38.8975498,-76.94634663,"7",NA,NA,NA,"PCS",0.585503963759909,0.186862967157418,0,172.140430351076,NA,NA,NA,NA,NA,NA,NA
3068,"MS/HS","410 8th Street, NW"," 	1,062 ",44179,551,"Basis DC PCS",0,48,23,38.89521439,-77.0232213,"2",NA,NA,NA,"PCS",0.0871143375680581,0.0417422867513612,0,80.1796733212341,NA,NA,NA,NA,NA,NA,NA
121,"MS","421 P Street, NW","",36149,344,"KIPP DC WILL Academy PCS",3,138,66,38.90988639,-77.01811734,"6",NA,NA,NA,"PCS",0.401162790697674,0.191860465116279,0.00872093023255814,105.084302325581,NA,NA,NA,NA,NA,NA,NA
190,"ES","421 P Street, NW","",31736,302,"KIPP DC LEAD Academy",4,127,27,38.90988639,-77.01811734,"6",NA,NA,NA,"PCS",0.420529801324503,0.0894039735099338,0.0132450331125828,105.086092715232,NA,NA,NA,NA,NA,NA,NA
1129,"PK3-K","421 P Street, NW"," 	1,195 ",32786,312,"KIPP DC GROW Academy PCS",3,140,17,38.90988639,-77.01811734,"6",NA,NA,NA,"PCS",0.448717948717949,0.0544871794871795,0.00961538461538462,105.083333333333,NA,NA,NA,NA,NA,NA,NA
174,"MS/HS","4300 C Street, SE","488",48128,336,"School for Educational Evolution and Development (SEED) PCS",0,172,57,38.88713024,-76.94630306,"7",NA,NA,NA,"PCS",0.511904761904762,0.169642857142857,0,143.238095238095,NA,NA,NA,NA,NA,NA,NA
117,"ES/MS","4401 8th Street, NE","650",42016,425,"Potomac Preparatory PCS",0,261,50,38.9429707,-76.994532,"5",NA,NA,NA,"PCS",0.614117647058824,0.117647058823529,0,98.8611764705882,NA,NA,NA,NA,NA,NA,NA
1138,"HS","4501 Kansas Avenue, NW","861",17647,422,"E.L. Haynes Kansas Avenue - High School",66,218,90,38.94560189,-77.02241638,"4",NA,NA,NA,"PCS",0.516587677725118,0.213270142180095,0.156398104265403,41.8175355450237,NA,NA,NA,NA,NA,NA,NA
200,"ES","4600 Livingston Road, SE","200",32142,201,"Ingenuity Prep PCS",0,148,22,38.82390393,-77.00308684,"8",NA,NA,NA,"PCS",0.736318407960199,0.109452736318408,0,159.910447761194,NA,NA,NA,NA,NA,NA,NA
1120,"HS","4600 Livingston Road, SE","400",48933,306,"National Collegiate Prep PCS",0,213,40,38.82390393,-77.00308684,"8",NA,NA,NA,"PCS",0.696078431372549,0.130718954248366,0,159.911764705882,NA,NA,NA,NA,NA,NA,NA
132,"PK3-K","4801 Benning Road, SE","",24801,304,"KIPP DC LEAP Academy PCS",0,177,19,38.88262754,-76.93439427,"7",NA,NA,NA,"PCS",0.582236842105263,0.0625,0,81.5822368421053,NA,NA,NA,NA,NA,NA,NA
189,"MS","4801 Benning Road, SE"," 	1,608 ",27248,334,"KIPP DC KEY Academy PCS",1,161,37,38.88262754,-76.93439427,"7",NA,NA,NA,"PCS",0.482035928143713,0.110778443113772,0.0029940119760479,81.5808383233533,NA,NA,NA,NA,NA,NA,NA
1121,"ES","4801 Benning Road, SE","",32632,400,"KIPP DC Promise PCS",3,219,55,38.88262754,-76.93439427,"7",NA,NA,NA,"PCS",0.5475,0.1375,0.0075,81.58,NA,NA,NA,NA,NA,NA,NA
1106,"ES/MS","510 Webster Street, NW","425",30825,262,"Center City Petworth Campus PCS",53,97,19,38.94387114,-77.02090667,"4",NA,NA,NA,"PCS",0.370229007633588,0.0725190839694656,0.202290076335878,117.652671755725,NA,NA,NA,NA,NA,NA,NA
125,"MS","5200 2nd Street, NW","835",35040,366,"Washington Latin PCS MS",3,16,29,38.95388895,-77.01381902,"4",NA,NA,NA,"PCS",0.0437158469945355,0.0792349726775956,0.00819672131147541,95.7377049180328,NA,NA,NA,NA,NA,NA,NA
1118,"HS","5201 2nd Street, NW","835",29280,304,"Washington Latin PCS HS",6,70,31,38.95388895,-77.01381902,"4",NA,NA,NA,"PCS",0.230263157894737,0.101973684210526,0.0197368421052632,96.3157894736842,NA,NA,NA,NA,NA,NA,NA
236,"PK3-K","5300 Blaine Street, NE","764",28914,212,"KIPP DC Arts & Technology Academy PCS",1,129,14,NA,NA,NA,NA,NA,NA,"PCS",0.608490566037736,0.0660377358490566,0.00471698113207547,136.38679245283,NA,NA,NA,NA,NA,NA,NA
237,"ES","5300 Blaine Street, NE","",38461,282,"KIPP DC Quest Academy PCS",1,176,43,NA,NA,NA,NA,NA,NA,"PCS",0.624113475177305,0.152482269503546,0.00354609929078014,136.386524822695,NA,NA,NA,NA,NA,NA,NA
101,"ALT","5600 E Capitol Street, NE","646",79453,252,"Maya Angelou Evans Campus PCS",0,0,88,38.89029144,-76.92063526,"7",NA,NA,NA,"PCS",0,0.349206349206349,0,315.289682539683,NA,NA,NA,NA,NA,NA,NA
137,"ADULT","5600 E Capitol Street, NE","",46347,147,"Maya Angelou Young Adult Learning Center",0,1,17,38.89029144,-76.92063526,"7",NA,NA,NA,"PCS",0.00680272108843537,0.115646258503401,0,315.285714285714,NA,NA,NA,NA,NA,NA,NA
3070,"ES","5601 East Capitol Street, SE","443",31000,389,"DC Scholars PCS",0,252,38,38.88947954,-76.92174283,"7",NA,NA,NA,"PCS",0.647814910025707,0.0976863753213368,0,79.6915167095116,NA,NA,NA,NA,NA,NA,NA
170,"MS","5800 8th Street, NW","780",68650,376,"Paul Public Charter School - Middle School",24,160,47,38.96136545,-77.02472307,"4",NA,NA,NA,"PCS",0.425531914893617,0.125,0.0638297872340425,182.579787234043,NA,NA,NA,NA,NA,NA,NA
222,"HS","5800 8th Street, NW","",59338,325,"Paul Public Charter School - International High School",24,159,42,38.96136545,-77.02472307,"4",NA,NA,NA,"PCS",0.489230769230769,0.129230769230769,0.0738461538461539,182.578461538462,NA,NA,NA,NA,NA,NA,NA
1103,"ES/MS","6008 Georgia Avenue, NW","567",37010,248,"Center City Brightwood Campus PCS",55,80,26,38.96319196,-77.02832854,"4",NA,NA,NA,"PCS",0.32258064516129,0.104838709677419,0.221774193548387,149.233870967742,NA,NA,NA,NA,NA,NA,NA
197,"ES","6015 Chillum Place, NE","N/A",0,86,"Sela PCS",8,24,8,38.96387483,-77.00736469,"4",NA,NA,NA,"PCS",0.27906976744186,0.0930232558139535,0.0930232558139535,0,NA,NA,NA,NA,NA,NA,NA
3066,"PK3-K","6017 Chillum Place, NE","N/A",0,118,"Shining Stars Montessori PCS",12,20,1,38.92008577,-77.03079817,"1",NA,NA,NA,"PCS",0.169491525423729,0.00847457627118644,0.101694915254237,0,NA,NA,NA,NA,NA,NA,NA
134,"ES/MS","6130 N Capitol Street, NW","500",35090,297,"Ideal Academy PCS North Capitol Street Campus ES",3,185,32,38.96491986,-77.00993332,"4",NA,NA,NA,"PCS",0.622895622895623,0.107744107744108,0.0101010101010101,118.148148148148,NA,NA,NA,NA,NA,NA,NA
245,"ES","62 T Street, NE","220",20000,66,"Harmony DC PCS-School of Excellence",0,40,8,NA,NA,NA,NA,NA,NA,"PCS",0.606060606060606,0.121212121212121,0,303.030303030303,NA,NA,NA,NA,NA,NA,NA
131,"ES","6200 Kansas Avenue, NE","500",41000,358,"Hope Community PCS Lamond Campus",13,148,22,38.96571909,-77.00860715,"4",NA,NA,NA,"PCS",0.41340782122905,0.0614525139664804,0.0363128491620112,114.525139664804,NA,NA,NA,NA,NA,NA,NA
113,"ES","645 Milwaukee Place, SE","950",58539,576,"Friendship PCS SouthEast Academy",0,412,56,38.84779147,-76.99700774,"8",NA,NA,NA,"PCS",0.715277777777778,0.0972222222222222,0,101.630208333333,NA,NA,NA,NA,NA,NA,NA
188,"PK3-K","701 Howard Road, SE","650",31000,358,"Cedar Tree Academy PCS",0,261,9,38.86421603,-76.99919401,"8",NA,NA,NA,"PCS",0.729050279329609,0.0251396648044693,0,86.5921787709497,NA,NA,NA,NA,NA,NA,NA
210,"ES/MS","705 Edgewood Street, NE","560",46835,439,"William E. Doar Jr PCS",13,223,35,38.9236448,-76.99585343,"5",NA,NA,NA,"PCS",0.507972665148064,0.0797266514806378,0.0296127562642369,106.685649202733,NA,NA,NA,NA,NA,NA,NA
130,"ES","707 Edgewood Street, NE","499",50050,432,"D C  Preparatory Edgewood Elementary Campus PCS",20,197,28,38.92427699,-76.99573508,"5",NA,NA,NA,"PCS",0.456018518518519,0.0648148148148148,0.0462962962962963,115.856481481481,NA,NA,NA,NA,NA,NA,NA
153,"HS","709 12th Street, SE","430",40000,358,"Cesar Chavez Capitol Hill PCS",21,225,70,38.88069473,-76.99064037,"6",NA,NA,NA,"PCS",0.628491620111732,0.195530726256983,0.058659217877095,111.731843575419,NA,NA,NA,NA,NA,NA,NA
1107,"ES/MS","711 N Street, NW","350",29240,241,"Center City Shaw Campus PCS",34,113,29,38.90744452,-77.02266552,"6",NA,NA,NA,"PCS",0.468879668049793,0.120331950207469,0.141078838174274,121.327800829876,NA,NA,NA,NA,NA,NA,NA
361,"ES","725 19th Street, NE","925",33895,379,"Friendship PCS Blow Pierce Elementary",6,289,14,38.89782045,-76.97648125,"7",NA,NA,NA,"PCS",0.762532981530343,0.0369393139841689,0.0158311345646438,89.4327176781003,NA,NA,NA,NA,NA,NA,NA
362,"MS","725 19th Street, NE","",19049,213,"Friendship PCS Blow-Pierce Middle",1,147,42,38.89782045,-76.97648125,"7",NA,NA,NA,"PCS",0.690140845070423,0.197183098591549,0.00469483568075117,89.4319248826291,NA,NA,NA,NA,NA,NA,NA
127,"MS","770 Kenyon Street, NW","420",36059,331,"Cesar Chavez PCS Chavez Prep",94,170,48,38.92960614,-77.02587574,"1",NA,NA,NA,"PCS",0.513595166163142,0.145015105740181,0.283987915407855,108.939577039275,NA,NA,NA,NA,NA,NA,NA
3067,"MS/HS","770 M Street, SE","398",28000,305,"Richard Wright PCS for Journalism and Media Arts",1,225,58,38.87699771,-76.99557668,"6",NA,NA,NA,"PCS",0.737704918032787,0.19016393442623,0.00327868852459016,91.8032786885246,NA,NA,NA,NA,NA,NA,NA
141,"PK3-K","801 7th Street, SW","158",6162,86,"AppleTree Early Learning Center PCS Southwest",4,41,2,38.8795154,-77.0181253,"6",NA,NA,NA,"PCS",0.476744186046512,0.0232558139534884,0.0465116279069767,71.6511627906977,NA,NA,NA,NA,NA,NA,NA
1100,"MS","908 Wahler Place, SE","519",33177,381,"Achievement Preparatory PCS-Middle School",0,192,51,38.8416454,-76.98339857,"8",NA,NA,NA,"PCS",0.503937007874016,0.133858267716535,0,87.0787401574803,NA,NA,NA,NA,NA,NA,NA
